[
  {
    "city": "台北市",
    "district": "中正區",
    "name": "全家新德店",
    "tel": "02-23214351",
    "address": "台北市中正區八德路一段４３巷２號",
    "lon": 121.531597,
    "lat": 25.044475
  },
  {
    "city": "台北市",
    "district": "中正區",
    "name": "全家台大醫院店",
    "tel": "02-33223538",
    "address": "台北市中正區中山南路７號Ｂ１樓",
    "lon": 121.518534,
    "lat": 25.040793
  },
  {
    "city": "台北市",
    "district": "中正區",
    "name": "全家新惠安店",
    "tel": "02-23036887",
    "address": "台北市中正區中華路二段３０７巷４６號",
    "lon": 121.506467,
    "lat": 25.02953
  },
  {
    "city": "台北市",
    "district": "中正區",
    "name": "全家南機場店",
    "tel": "02-23039420",
    "address": "台北市中正區中華路二段３１１巷１號１樓",
    "lon": 121.505774,
    "lat": 25.028401
  },
  {
    "city": "台北市",
    "district": "中正區",
    "name": "全家高鐵一店",
    "tel": "02-23619736",
    "address": "台北市中正區北平西路３號Ｂ１東側",
    "lon": 121.517044,
    "lat": 25.047203
  },
  {
    "city": "台北市",
    "district": "中正區",
    "name": "全家高鐵二店",
    "tel": "02-23148950",
    "address": "台北市中正區北平西路３號Ｂ１西側",
    "lon": 121.517044,
    "lat": 25.047203
  },
  {
    "city": "台北市",
    "district": "中正區",
    "name": "全家台鐵西店",
    "tel": "02-23141492",
    "address": "臺北市中正區北平西路３號（西南站）",
    "lon": 121.517044,
    "lat": 25.047203
  },
  {
    "city": "台北市",
    "district": "中正區",
    "name": "全家台鐵北店",
    "tel": "02-23142838",
    "address": "臺北市中正區北平西路３號（西北站）",
    "lon": 121.517044,
    "lat": 25.047203
  },
  {
    "city": "台北市",
    "district": "中正區",
    "name": "全家台鐵二店",
    "tel": "02-23147112",
    "address": "臺北市中正區北平西路３號Ｂ１",
    "lon": 121.517044,
    "lat": 25.047203
  },
  {
    "city": "台北市",
    "district": "中正區",
    "name": "全家台鐵南店",
    "tel": "02-23883209",
    "address": "臺北市中正區北平西路３號（東南站）",
    "lon": 121.517044,
    "lat": 25.047203
  },
  {
    "city": "台北市",
    "district": "中正區",
    "name": "全家台鐵東店",
    "tel": "02-23893070",
    "address": "臺北市中正區北平西路３號（東北站）",
    "lon": 121.517044,
    "lat": 25.047203
  },
  {
    "city": "台北市",
    "district": "中正區",
    "name": "全家台鐵一店",
    "tel": "02-23614184",
    "address": "臺北市中正區北平西路３號Ｂ１",
    "lon": 121.517044,
    "lat": 25.047203
  },
  {
    "city": "台北市",
    "district": "中正區",
    "name": "全家新龍口店",
    "tel": "02-23047184",
    "address": "台北市中正區汀州路一段２４４號",
    "lon": 121.510372,
    "lat": 25.027225
  },
  {
    "city": "台北市",
    "district": "中正區",
    "name": "全家新廈門店",
    "tel": "02-23681443",
    "address": "台北市中正區汀州路二段３８號１樓",
    "lon": 121.517592,
    "lat": 25.025318
  },
  {
    "city": "台北市",
    "district": "中正區",
    "name": "全家金門店",
    "tel": "02-23642756",
    "address": "台北市中正區汀州路二段２１６號１樓",
    "lon": 121.523802,
    "lat": 25.022299
  },
  {
    "city": "台北市",
    "district": "中正區",
    "name": "全家公館店",
    "tel": "02-23688539",
    "address": "台北市中正區汀州路三段２５１號",
    "lon": 121.534399,
    "lat": 25.013659
  },
  {
    "city": "台北市",
    "district": "中正區",
    "name": "全家文盛店",
    "tel": "02-23681345",
    "address": "台北市中正區汀州路三段１７３號",
    "lon": 121.532452,
    "lat": 25.015119
  },
  {
    "city": "台北市",
    "district": "中正區",
    "name": "全家水源店",
    "tel": "02-23642257",
    "address": "台北市中正區汀州路三段２６１號",
    "lon": 121.535183,
    "lat": 25.012862
  },
  {
    "city": "台北市",
    "district": "中正區",
    "name": "全家辛館店",
    "tel": "02-23688257",
    "address": "台北市中正區辛亥路一段１３號",
    "lon": 121.527913,
    "lat": 25.019074
  },
  {
    "city": "台北市",
    "district": "中正區",
    "name": "全家和鄰店",
    "tel": "02-23628326",
    "address": "台北市中正區和平西路一段８２號１樓",
    "lon": 121.518738,
    "lat": 25.026387
  },
  {
    "city": "台北市",
    "district": "中正區",
    "name": "全家郡王店",
    "tel": "02-23719902",
    "address": "台北市中正區延平南路６８號",
    "lon": 121.510301,
    "lat": 25.044961
  },
  {
    "city": "台北市",
    "district": "中正區",
    "name": "全家寶慶店",
    "tel": "02-23898700",
    "address": "台北市中正區延平南路１１１號",
    "lon": 121.509561,
    "lat": 25.041885
  },
  {
    "city": "台北市",
    "district": "中正區",
    "name": "全家和醫店",
    "tel": "02-23122560",
    "address": "台北市中正區延平南路１５９號１樓",
    "lon": 121.507736,
    "lat": 25.035301
  },
  {
    "city": "台北市",
    "district": "中正區",
    "name": "全家亞慶店",
    "tel": "02-23706675",
    "address": "台北市中正區忠孝西路一段５０號１樓",
    "lon": 121.515803,
    "lat": 25.046308
  },
  {
    "city": "台北市",
    "district": "中正區",
    "name": "全家凱撒店",
    "tel": "02-23898803",
    "address": "台北市中正區忠孝西路一段３８號１樓（部份）",
    "lon": 121.516417,
    "lat": 25.046254
  },
  {
    "city": "台北市",
    "district": "中正區",
    "name": "全家鴻啟店",
    "tel": "02-23142878",
    "address": "台北市中正區忠孝西路一段１００號",
    "lon": 121.512733,
    "lat": 25.047165
  },
  {
    "city": "台北市",
    "district": "中正區",
    "name": "全家崇聖店",
    "tel": "02-23818610",
    "address": "台北市中正區忠孝西路一段４號",
    "lon": 121.518491,
    "lat": 25.045747
  },
  {
    "city": "台北市",
    "district": "中正區",
    "name": "全家台北地下街店",
    "tel": "02-23142698",
    "address": "台北市中正區忠孝西路一段４７號Ｂ１（ＫＢ１１２）",
    "lon": 121.516746,
    "lat": 25.04691
  },
  {
    "city": "台北市",
    "district": "中正區",
    "name": "全家北車捷運店",
    "tel": "02-23140359",
    "address": "臺北市中正區忠孝西路一段４９號Ｂ１",
    "lon": 121.517243,
    "lat": 25.046481
  },
  {
    "city": "台北市",
    "district": "中正區",
    "name": "全家北車店",
    "tel": "02-89411871",
    "address": "台北市中正區忠孝西路一段４５號１Ｆ部分",
    "lon": 121.517916,
    "lat": 25.04633
  },
  {
    "city": "台北市",
    "district": "中正區",
    "name": "全家善導寺店",
    "tel": "02-23964652",
    "address": "台北市中正區忠孝東路一段９號１樓",
    "lon": 121.523659,
    "lat": 25.044951
  },
  {
    "city": "台北市",
    "district": "中正區",
    "name": "全家兆豐店",
    "tel": "02-23418109",
    "address": "台北市中正區忠孝東路二段９３號１樓",
    "lon": 121.530909,
    "lat": 25.04314
  },
  {
    "city": "台北市",
    "district": "中正區",
    "name": "全家忠孝新生店",
    "tel": "02-23223385",
    "address": "台北市中正區忠孝東路二段１３４巷８號１樓及地下室",
    "lon": 121.53158,
    "lat": 25.041828
  },
  {
    "city": "台北市",
    "district": "中正區",
    "name": "全家富邦店",
    "tel": "02-23513120",
    "address": "台北市中正區杭州南路一段１９號１Ｆ",
    "lon": 121.526566,
    "lat": 25.042543
  },
  {
    "city": "台北市",
    "district": "中正區",
    "name": "全家文祥店",
    "tel": "02-23914884",
    "address": "台北市中正區杭州南路一段１４７號",
    "lon": 121.524657,
    "lat": 25.035943
  },
  {
    "city": "台北市",
    "district": "中正區",
    "name": "全家林森南路店",
    "tel": "02-23519110",
    "address": "台北市中正區林森南路５７．５９號",
    "lon": 121.522046,
    "lat": 25.039944
  },
  {
    "city": "台北市",
    "district": "中正區",
    "name": "全家北盛店",
    "tel": "02-23612673",
    "address": "台北市中正區青島西路１３號",
    "lon": 121.517587,
    "lat": 25.04503
  },
  {
    "city": "台北市",
    "district": "中正區",
    "name": "全家南陽店",
    "tel": "02-23881469",
    "address": "台北市中正區信陽街１５號",
    "lon": 121.516203,
    "lat": 25.044774
  },
  {
    "city": "台北市",
    "district": "中正區",
    "name": "全家南海店",
    "tel": "02-23564283",
    "address": "臺北市中正區南海路２０號",
    "lon": 121.517011,
    "lat": 25.032433
  },
  {
    "city": "台北市",
    "district": "中正區",
    "name": "全家正陽店",
    "tel": "02-23613524",
    "address": "台北市中正區南陽街１號",
    "lon": 121.516304,
    "lat": 25.045711
  },
  {
    "city": "台北市",
    "district": "中正區",
    "name": "全家重慶店",
    "tel": "02-23122797",
    "address": "台北市中正區重慶南路一段５８號",
    "lon": 121.51306,
    "lat": 25.043947
  },
  {
    "city": "台北市",
    "district": "中正區",
    "name": "全家台六宿舍店",
    "tel": "02-33226216",
    "address": "台北市中正區徐州路２之２號１Ｆ",
    "lon": 121.521497,
    "lat": 25.041041
  },
  {
    "city": "台北市",
    "district": "中正區",
    "name": "全家昌盛店",
    "tel": "02-23123067",
    "address": "台北市中正區許昌街１４號１Ｆ",
    "lon": 121.516757,
    "lat": 25.045438
  },
  {
    "city": "台北市",
    "district": "中正區",
    "name": "全家博愛店",
    "tel": "02-23432173",
    "address": "台北市中正區博愛路６３號１Ｆ＋Ｂ１Ｆ",
    "lon": 121.511551,
    "lat": 25.044256
  },
  {
    "city": "台北市",
    "district": "中正區",
    "name": "全家開封店",
    "tel": "02-23709020",
    "address": "台北市中正區開封街一段４１號１樓",
    "lon": 121.512513,
    "lat": 25.046144
  },
  {
    "city": "台北市",
    "district": "中正區",
    "name": "全家嶺先店",
    "tel": "02-23672038",
    "address": "台北市中正區廈門街１１３巷１７號１樓及地下室部分",
    "lon": 121.5191,
    "lat": 25.023508
  },
  {
    "city": "台北市",
    "district": "中正區",
    "name": "全家教育大學店",
    "tel": "02-23888317",
    "address": "台北市中正區愛國西路１號",
    "lon": 121.513569,
    "lat": 25.035578
  },
  {
    "city": "台北市",
    "district": "中正區",
    "name": "全家漢盛店",
    "tel": "02-23117024",
    "address": "台北市中正區漢口街一段１８號",
    "lon": 121.514384,
    "lat": 25.045099
  },
  {
    "city": "台北市",
    "district": "中正區",
    "name": "全家福昌店",
    "tel": "02-23913137",
    "address": "台北市中正區福州街１０號１樓（部份）",
    "lon": 121.519789,
    "lat": 25.029407
  },
  {
    "city": "台北市",
    "district": "中正區",
    "name": "全家機場捷運店",
    "tel": "02-23311029",
    "address": "台北市中正區鄭州路８號Ｂ１樓",
    "lon": 121.512762,
    "lat": 25.049401
  },
  {
    "city": "台北市",
    "district": "中正區",
    "name": "全家新衡陽店",
    "tel": "02-23711130",
    "address": "台北市中正區衡陽路７７號一樓",
    "lon": 121.511054,
    "lat": 25.042355
  },
  {
    "city": "台北市",
    "district": "中正區",
    "name": "全家衡慶店",
    "tel": "02-23820271",
    "address": "台北市中正區衡陽路７號１樓部分（如附圖）",
    "lon": 121.513718,
    "lat": 25.042415
  },
  {
    "city": "台北市",
    "district": "中正區",
    "name": "全家新仟囍店",
    "tel": "02-23822831",
    "address": "台北市中正區館前路３６號１樓",
    "lon": 121.514898,
    "lat": 25.044561
  },
  {
    "city": "台北市",
    "district": "中正區",
    "name": "全家齊東店",
    "tel": "02-23942076",
    "address": "台北市中正區濟南路二段３－７號１樓",
    "lon": 121.526814,
    "lat": 25.041596
  },
  {
    "city": "台北市",
    "district": "中正區",
    "name": "全家富陽店",
    "tel": "02-23754181",
    "address": "台北市中正區襄陽路７號１樓",
    "lon": 121.515838,
    "lat": 25.043519
  },
  {
    "city": "台北市",
    "district": "中正區",
    "name": "全家西站店",
    "tel": "02-23120577",
    "address": "台北市中正區懷寧街７之１號",
    "lon": 121.514268,
    "lat": 25.046208
  },
  {
    "city": "台北市",
    "district": "中正區",
    "name": "全家羅斯店",
    "tel": "02-23962007",
    "address": "台北市中正區羅斯福路２段６２號１樓",
    "lon": 121.521717,
    "lat": 25.02764
  },
  {
    "city": "台北市",
    "district": "中正區",
    "name": "全家羅安店",
    "tel": "02-23654518",
    "address": "台北市中正區羅斯福路二段１４０號１樓",
    "lon": 121.52301,
    "lat": 25.025919
  },
  {
    "city": "台北市",
    "district": "中正區",
    "name": "全家金安店",
    "tel": "02-23654620",
    "address": "台北市中正區羅斯福路三段８號１＋２樓",
    "lon": 121.524883,
    "lat": 25.023396
  },
  {
    "city": "台北市",
    "district": "中正區",
    "name": "全家羅館店",
    "tel": "02-23675612",
    "address": "台北市中正區羅斯福路三段２４４巷７號１樓",
    "lon": 121.530802,
    "lat": 25.016935
  },
  {
    "city": "台北市",
    "district": "中正區",
    "name": "全家館中店",
    "tel": "02-23672204",
    "address": "台北市中正區羅斯福路三段３１６巷８弄１號１樓",
    "lon": 121.5326,
    "lat": 25.015748
  },
  {
    "city": "台北市",
    "district": "大同區",
    "name": "全家大龍店",
    "tel": "02-25980054",
    "address": "台北市大同區大龍街１３３號１樓",
    "lon": 121.516045,
    "lat": 25.067372
  },
  {
    "city": "台北市",
    "district": "大同區",
    "name": "全家蘭州店",
    "tel": "02-25995380",
    "address": "台北市大同區大龍街２１７號１樓",
    "lon": 121.515924,
    "lat": 25.070586
  },
  {
    "city": "台北市",
    "district": "大同區",
    "name": "全家泰元店",
    "tel": "02-25592980",
    "address": "台北市大同區太原路８１號",
    "lon": 121.51569,
    "lat": 25.051883
  },
  {
    "city": "台北市",
    "district": "大同區",
    "name": "全家太陽店",
    "tel": "02-25507907",
    "address": "台北市大同區太原路１５３號１樓",
    "lon": 121.516696,
    "lat": 25.055294
  },
  {
    "city": "台北市",
    "district": "大同區",
    "name": "全家萬全店",
    "tel": "02-25576965",
    "address": "台北市大同區民生西路６３號",
    "lon": 121.520117,
    "lat": 25.057725
  },
  {
    "city": "台北市",
    "district": "大同區",
    "name": "全家福澤店",
    "tel": "02-25572577",
    "address": "台北市大同區民權西路１４６號",
    "lon": 121.515817,
    "lat": 25.062778
  },
  {
    "city": "台北市",
    "district": "大同區",
    "name": "全家權澤店",
    "tel": "02-25506916",
    "address": "台北市大同區民權西路１１０號１樓及夾層",
    "lon": 121.517087,
    "lat": 25.062732
  },
  {
    "city": "台北市",
    "district": "大同區",
    "name": "全家永樂店",
    "tel": "02-25529571",
    "address": "台北市大同區延平北路二段２６０號之１",
    "lon": 121.511226,
    "lat": 25.060382
  },
  {
    "city": "台北市",
    "district": "大同區",
    "name": "全家新橋店",
    "tel": "02-25996171",
    "address": "臺北市大同區延平北路三段２５之３號",
    "lon": 121.511223,
    "lat": 25.064474
  },
  {
    "city": "台北市",
    "district": "大同區",
    "name": "全家國順店",
    "tel": "02-25919787",
    "address": "台北市大同區延平北路三段１１８號１樓",
    "lon": 121.510818,
    "lat": 25.067306
  },
  {
    "city": "台北市",
    "district": "大同區",
    "name": "全家龍泉店",
    "tel": "02-85961664",
    "address": "台北市大同區延平北路四段６２號１樓",
    "lon": 121.510708,
    "lat": 25.070552
  },
  {
    "city": "台北市",
    "district": "大同區",
    "name": "全家京承店",
    "tel": "02-25508721",
    "address": "台北市大同區承德路一段２９號１樓",
    "lon": 121.517227,
    "lat": 25.050731
  },
  {
    "city": "台北市",
    "district": "大同區",
    "name": "全家日新店",
    "tel": "02-25505051",
    "address": "台北市大同區承德路二段３９＆４１號１樓",
    "lon": 121.518404188858,
    "lat": 25.0550369830347
  },
  {
    "city": "台北市",
    "district": "大同區",
    "name": "全家福安店",
    "tel": "02-25509755",
    "address": "台北市大同區長安西路５４號１樓",
    "lon": 121.519855,
    "lat": 25.050123
  },
  {
    "city": "台北市",
    "district": "大同區",
    "name": "全家玉泉店",
    "tel": "02-25522657",
    "address": "台北市大同區長安西路３４２號１樓",
    "lon": 121.510229,
    "lat": 25.051929
  },
  {
    "city": "台北市",
    "district": "大同區",
    "name": "全家長慶店",
    "tel": "02-25507756",
    "address": "台北市大同區長安西路２５８號１樓",
    "lon": 121.513331,
    "lat": 25.051645
  },
  {
    "city": "台北市",
    "district": "大同區",
    "name": "全家福山店",
    "tel": "02-25526380",
    "address": "台北市大同區長安西路２５號１樓全部",
    "lon": 121.519947,
    "lat": 25.050434
  },
  {
    "city": "台北市",
    "district": "大同區",
    "name": "全家金慶店",
    "tel": "02-25564600",
    "address": "台北市大同區南京西路３０８號１樓",
    "lon": 121.513337,
    "lat": 25.053915
  },
  {
    "city": "台北市",
    "district": "大同區",
    "name": "全家京鋒店",
    "tel": "02-25587692",
    "address": "台北市大同區南京西路６１號１樓",
    "lon": 121.519086,
    "lat": 25.053089
  },
  {
    "city": "台北市",
    "district": "大同區",
    "name": "全家迪化街店",
    "tel": "02-85902267",
    "address": "台北市大同區迪化街一段４２號１、２樓",
    "lon": 121.50998,
    "lat": 25.054903
  },
  {
    "city": "台北市",
    "district": "大同區",
    "name": "全家迪化店",
    "tel": "02-25509641",
    "address": "台北市大同區迪化街一段５０號１樓",
    "lon": 121.50993,
    "lat": 25.055128
  },
  {
    "city": "台北市",
    "district": "大同區",
    "name": "全家慶權店",
    "tel": "02-25578978",
    "address": "台北市大同區重慶北路二段２６３號１樓",
    "lon": 121.513745,
    "lat": 25.062749
  },
  {
    "city": "台北市",
    "district": "大同區",
    "name": "全家龍昌店",
    "tel": "02-25919144",
    "address": "台北市大同區重慶北路三段３２７號１樓（如附圖）",
    "lon": 121.514062,
    "lat": 25.074338
  },
  {
    "city": "台北市",
    "district": "大同區",
    "name": "全家慶國店",
    "tel": "02-25950170",
    "address": "台北市大同區重慶北路三段２７８之２號１樓",
    "lon": 121.513584,
    "lat": 25.072793
  },
  {
    "city": "台北市",
    "district": "大同區",
    "name": "全家酒泉店",
    "tel": "02-25929575",
    "address": "臺北市大同區庫倫街４８之４號",
    "lon": 121.518297,
    "lat": 25.071835
  },
  {
    "city": "台北市",
    "district": "大同區",
    "name": "全家鑫泉店",
    "tel": "02-25986829",
    "address": "台北市大同區酒泉街２２７號１樓",
    "lon": 121.511208,
    "lat": 25.072254
  },
  {
    "city": "台北市",
    "district": "大同區",
    "name": "全家寧夏店",
    "tel": "02-25500930",
    "address": "台北市大同區寧夏路２８，３０，２８—１，２８—２號",
    "lon": 121.515108,
    "lat": 25.055823
  },
  {
    "city": "台北市",
    "district": "大同區",
    "name": "全家甘州店",
    "tel": "02-25505587",
    "address": "台北市大同區歸綏街１８１之２號",
    "lon": 121.513038,
    "lat": 25.058305
  },
  {
    "city": "台北市",
    "district": "中山區",
    "name": "全家京江店",
    "tel": "02-25678224",
    "address": "台北市中山區一江街２２號１樓",
    "lon": 121.531373,
    "lat": 25.052696
  },
  {
    "city": "台北市",
    "district": "中山區",
    "name": "全家直學店",
    "tel": "02-25328364",
    "address": "台北市中山區大直街１１號",
    "lon": 121.546531,
    "lat": 25.080829
  },
  {
    "city": "台北市",
    "district": "中山區",
    "name": "全家大直店",
    "tel": "02-25328875",
    "address": "台北市中山區大直街３３巷１號",
    "lon": 121.546504,
    "lat": 25.082196
  },
  {
    "city": "台北市",
    "district": "中山區",
    "name": "全家市民店",
    "tel": "02-25638109",
    "address": "台北市中山區中山北路一段５８號",
    "lon": 121.520695,
    "lat": 25.04851
  },
  {
    "city": "台北市",
    "district": "中山區",
    "name": "全家六條通店",
    "tel": "02-25218716",
    "address": "台北市中山區中山北路一段１０５巷２２號１樓及地下層",
    "lon": 121.524574,
    "lat": 25.05033
  },
  {
    "city": "台北市",
    "district": "中山區",
    "name": "全家柯達飯店",
    "tel": "02-25417813",
    "address": "台北市中山區中山北路二段１１巷１號、３號",
    "lon": 121.523174,
    "lat": 25.052871
  },
  {
    "city": "台北市",
    "district": "中山區",
    "name": "全家新國賓店",
    "tel": "02-25818863",
    "address": "台北市中山區中山北路二段７５－１號１樓",
    "lon": 121.523072,
    "lat": 25.057487
  },
  {
    "city": "台北市",
    "district": "中山區",
    "name": "全家東南店",
    "tel": "02-25317972",
    "address": "台北市中山區中山北路二段６０號",
    "lon": 121.522565,
    "lat": 25.056609
  },
  {
    "city": "台北市",
    "district": "中山區",
    "name": "全家中賓店",
    "tel": "02-25230023",
    "address": "台北市中山區中山里中山北路二段５９之３號１樓",
    "lon": 121.522976,
    "lat": 25.056037
  },
  {
    "city": "台北市",
    "district": "中山區",
    "name": "全家聚葉店",
    "tel": "02-25716328",
    "address": "台北市中山區中山北路二段１３７巷３４號１樓",
    "lon": 121.525065,
    "lat": 25.061609
  },
  {
    "city": "台北市",
    "district": "中山區",
    "name": "全家台鑫店",
    "tel": "02-25118851",
    "address": "台北市中山區中山北路二段４４號１樓部份",
    "lon": 121.522496,
    "lat": 25.055228
  },
  {
    "city": "台北市",
    "district": "中山區",
    "name": "全家圓山飯店",
    "tel": "02-28850843",
    "address": "台北市中山區中山北路四段１巷１號１樓（麒麟廳））",
    "lon": 121.528828,
    "lat": 25.081177
  },
  {
    "city": "台北市",
    "district": "中山區",
    "name": "全家新吉原店",
    "tel": "02-25113653",
    "address": "台北市中山區中原街１６號１樓",
    "lon": 121.528746,
    "lat": 25.05651
  },
  {
    "city": "台北市",
    "district": "中山區",
    "name": "全家錦原店",
    "tel": "02-25412311",
    "address": "台北市中山區中原街１０１號１樓",
    "lon": 121.529006,
    "lat": 25.060968
  },
  {
    "city": "台北市",
    "district": "中山區",
    "name": "全家五常店",
    "tel": "02-25067078",
    "address": "台北市中山區五常街５３巷２３號１號",
    "lon": 121.539687,
    "lat": 25.06551
  },
  {
    "city": "台北市",
    "district": "中山區",
    "name": "全家日津店",
    "tel": "02-25635367",
    "address": "台北市中山區正義里天津街４７號１樓及地下室",
    "lon": 121.523071,
    "lat": 25.050165
  },
  {
    "city": "台北市",
    "district": "中山區",
    "name": "全家美華店",
    "tel": "02-85095070",
    "address": "台北市中山區北安路８１９之１號",
    "lon": 121.556154,
    "lat": 25.084952
  },
  {
    "city": "台北市",
    "district": "中山區",
    "name": "全家永安店",
    "tel": "02-25322254",
    "address": "台北市中山區北安路６３０巷７號１樓",
    "lon": 121.549469,
    "lat": 25.082873
  },
  {
    "city": "台北市",
    "district": "中山區",
    "name": "全家新北鄰店",
    "tel": "02-25325010",
    "address": "台北市中山區北安路４５８巷４１弄４８號１樓",
    "lon": 121.546273,
    "lat": 25.078927
  },
  {
    "city": "台北市",
    "district": "中山區",
    "name": "全家松平店",
    "tel": "02-25318666",
    "address": "台北市中山區四平街４７號",
    "lon": 121.532316,
    "lat": 25.053789
  },
  {
    "city": "台北市",
    "district": "中山區",
    "name": "全家雙全店",
    "tel": "02-25217082",
    "address": "台北市中山區民生西路６２號１樓全部",
    "lon": 121.52089,
    "lat": 25.057589
  },
  {
    "city": "台北市",
    "district": "中山區",
    "name": "全家新馬偕店",
    "tel": "02-25117837",
    "address": "台北市中山區民生西路３３號１－４樓",
    "lon": 121.521051,
    "lat": 25.057875
  },
  {
    "city": "台北市",
    "district": "中山區",
    "name": "全家福泰店",
    "tel": "02-25413026",
    "address": "台北市中山區民生東路一段３６號１樓",
    "lon": 121.524275,
    "lat": 25.057944
  },
  {
    "city": "台北市",
    "district": "中山區",
    "name": "全家玉林店",
    "tel": "02-25222731",
    "address": "台北市中山區民生東路一段２７巷１５號",
    "lon": 121.525095,
    "lat": 25.058711
  },
  {
    "city": "台北市",
    "district": "中山區",
    "name": "全家民佳店",
    "tel": "02-25038763",
    "address": "台北市中山區民生東路二段１５５號１樓",
    "lon": 121.535821,
    "lat": 25.058134
  },
  {
    "city": "台北市",
    "district": "中山區",
    "name": "全家民族店",
    "tel": "02-25185693",
    "address": "台北市中山區民族東路４１０巷２３弄２４號",
    "lon": 121.539542,
    "lat": 25.066772
  },
  {
    "city": "台北市",
    "district": "中山區",
    "name": "全家中山民權店",
    "tel": "02-25113070",
    "address": "台北市中山區民權西路３８之１號１樓",
    "lon": 121.521246,
    "lat": 25.062598
  },
  {
    "city": "台北市",
    "district": "中山區",
    "name": "全家民權西路店",
    "tel": "02-25994884",
    "address": "台北市中山區民權西路３５號１樓",
    "lon": 121.521138,
    "lat": 25.063023
  },
  {
    "city": "台北市",
    "district": "中山區",
    "name": "全家新吉林店",
    "tel": "02-25639757",
    "address": "台北市中山區民權東路二段４６號１樓",
    "lon": 121.53003,
    "lat": 25.062375
  },
  {
    "city": "台北市",
    "district": "中山區",
    "name": "全家錦民店",
    "tel": "02-25078797",
    "address": "台北市中山區民權東路二段１５２巷１４號",
    "lon": 121.534897,
    "lat": 25.061138
  },
  {
    "city": "台北市",
    "district": "中山區",
    "name": "全家江寧店",
    "tel": "02-25171595",
    "address": "台北市中山區民權東路三段６４號１樓",
    "lon": 121.542647,
    "lat": 25.0622
  },
  {
    "city": "台北市",
    "district": "中山區",
    "name": "全家長通店",
    "tel": "02-25029136",
    "address": "台北市中山區伊通街１０８號１樓",
    "lon": 121.534701,
    "lat": 25.054092
  },
  {
    "city": "台北市",
    "district": "中山區",
    "name": "全家金通店",
    "tel": "02-25181554",
    "address": "台北市中山區伊通街５８號",
    "lon": 121.53462,
    "lat": 25.051541
  },
  {
    "city": "台北市",
    "district": "中山區",
    "name": "全家德惠店",
    "tel": "02-25953593",
    "address": "台北市中山區吉林路４４８號",
    "lon": 121.530302,
    "lat": 25.066734
  },
  {
    "city": "台北市",
    "district": "中山區",
    "name": "全家合江店",
    "tel": "02-25185276",
    "address": "台北市中山區合江街８７號一樓",
    "lon": 121.539236,
    "lat": 25.059271
  },
  {
    "city": "台北市",
    "district": "中山區",
    "name": "全家朱崙店",
    "tel": "02-27528615",
    "address": "台北市中山區朱崙街６７號",
    "lon": 121.542348,
    "lat": 25.050058
  },
  {
    "city": "台北市",
    "district": "中山區",
    "name": "全家明水店",
    "tel": "02-85097543",
    "address": "台北市中山區明水路５８１巷１１號１樓",
    "lon": 121.551168,
    "lat": 25.080138
  },
  {
    "city": "台北市",
    "district": "中山區",
    "name": "全家復林店",
    "tel": "02-25230478",
    "address": "台北市中山區林森北路１４９－１．１４９－２號１樓",
    "lon": 121.525374,
    "lat": 25.05154
  },
  {
    "city": "台北市",
    "district": "中山區",
    "name": "全家金林店",
    "tel": "02-25629847",
    "address": "台北市中山區林森北路１０９號１樓",
    "lon": 121.525082,
    "lat": 25.050426
  },
  {
    "city": "台北市",
    "district": "中山區",
    "name": "全家長林店",
    "tel": "02-25629310",
    "address": "台北市中山區林森北路１０７巷５４號",
    "lon": 121.526742,
    "lat": 25.049799
  },
  {
    "city": "台北市",
    "district": "中山區",
    "name": "全家林慶店",
    "tel": "02-25672790",
    "address": "台北市中山區林森北路３７６號１樓",
    "lon": 121.525365,
    "lat": 25.057878
  },
  {
    "city": "台北市",
    "district": "中山區",
    "name": "全家錦富店",
    "tel": "02-25684923",
    "address": "台北市中山區林森北路４２８號１樓",
    "lon": 121.525412,
    "lat": 25.060015
  },
  {
    "city": "台北市",
    "district": "中山區",
    "name": "全家新林森店",
    "tel": "02-25977209",
    "address": "台北市中山區林森北路６３０號１樓",
    "lon": 121.52559,
    "lat": 25.067598
  },
  {
    "city": "台北市",
    "district": "中山區",
    "name": "全家金漾店",
    "tel": "02-25219884",
    "address": "台北市中山區林森北路３０８號",
    "lon": 121.525358,
    "lat": 25.056151
  },
  {
    "city": "台北市",
    "district": "中山區",
    "name": "全家新錦林店",
    "tel": "02-26271008",
    "address": "台北市中山區林森北路３９９巷２４號１樓",
    "lon": 121.526173,
    "lat": 25.059393
  },
  {
    "city": "台北市",
    "district": "中山區",
    "name": "全家欣城店",
    "tel": "02-25411007",
    "address": "台北市中山區林森北路２４７號１樓",
    "lon": 121.525557,
    "lat": 25.054139
  },
  {
    "city": "台北市",
    "district": "中山區",
    "name": "全家新林森北路店",
    "tel": "02-25114623",
    "address": "台北市中山區林森北路１１９巷５０號１樓",
    "lon": 121.526838,
    "lat": 25.050269
  },
  {
    "city": "台北市",
    "district": "中山區",
    "name": "全家長松店",
    "tel": "02-25641508",
    "address": "台北市中山區松江路５０號１樓部份",
    "lon": 121.532721,
    "lat": 25.048275
  },
  {
    "city": "台北市",
    "district": "中山區",
    "name": "全家松江南京店",
    "tel": "02-25023193",
    "address": "臺北市中山區松江路１２６號Ｂ１",
    "lon": 121.532728,
    "lat": 25.052743
  },
  {
    "city": "台北市",
    "district": "中山區",
    "name": "全家松國店",
    "tel": "02-25024147",
    "address": "台北市中山區松江路４７３號１樓",
    "lon": 121.533457,
    "lat": 25.066763
  },
  {
    "city": "台北市",
    "district": "中山區",
    "name": "全家松好店",
    "tel": "02-25083831",
    "address": "台北市中山區松江路６１之１號１樓",
    "lon": 121.533153,
    "lat": 25.048681
  },
  {
    "city": "台北市",
    "district": "中山區",
    "name": "全家松京店",
    "tel": "02-25715929",
    "address": "台北市中山區松江路１２２號１樓",
    "lon": 121.532796,
    "lat": 25.05236
  },
  {
    "city": "台北市",
    "district": "中山區",
    "name": "全家權勝店",
    "tel": "02-25935820",
    "address": "台北市中山區松江路４００號１樓及地下室",
    "lon": 121.532988,
    "lat": 25.063798
  },
  {
    "city": "台北市",
    "district": "中山區",
    "name": "全家松茂店",
    "tel": "02-25028713",
    "address": "台北市中山區松江路１２７之１號１樓及地下室",
    "lon": 121.533337,
    "lat": 25.053603
  },
  {
    "city": "台北市",
    "district": "中山區",
    "name": "全家光華店",
    "tel": "02-25670175",
    "address": "台北市中山區松江路２４之１號",
    "lon": 121.5327,
    "lat": 25.04704
  },
  {
    "city": "台北市",
    "district": "中山區",
    "name": "全家正義店",
    "tel": "02-25239542",
    "address": "台北市中山區長安東路一段５５號",
    "lon": 121.526468,
    "lat": 25.048823
  },
  {
    "city": "台北市",
    "district": "中山區",
    "name": "全家遼寧店",
    "tel": "02-27405515",
    "address": "台北市中山區長安東路二段２１６號",
    "lon": 121.542416,
    "lat": 25.048204
  },
  {
    "city": "台北市",
    "district": "中山區",
    "name": "全家本部店",
    "tel": "02-25173149",
    "address": "台北市中山區長安東路二段９９號１樓及２樓",
    "lon": 121.534908,
    "lat": 25.048538
  },
  {
    "city": "台北市",
    "district": "中山區",
    "name": "全家長賓店",
    "tel": "02-25221603",
    "address": "台北市中山區長春路１５號１樓",
    "lon": 121.523934,
    "lat": 25.055046
  },
  {
    "city": "台北市",
    "district": "中山區",
    "name": "全家春北店",
    "tel": "02-87707194",
    "address": "台北市中山區長春路４１０號１樓",
    "lon": 121.543757,
    "lat": 25.054476
  },
  {
    "city": "台北市",
    "district": "中山區",
    "name": "全家長春店",
    "tel": "02-25817796",
    "address": "台北市中山區長春路４８號",
    "lon": 121.525761,
    "lat": 25.054812
  },
  {
    "city": "台北市",
    "district": "中山區",
    "name": "全家欣欣店",
    "tel": "02-25314871",
    "address": "台北市中山區長春路１００號１樓",
    "lon": 121.527918,
    "lat": 25.054817
  },
  {
    "city": "台北市",
    "district": "中山區",
    "name": "全家中山捷運站店",
    "tel": "02-25507063",
    "address": "台北市中山區南京西路１６號Ｂ１",
    "lon": 121.520266,
    "lat": 25.052442
  },
  {
    "city": "台北市",
    "district": "中山區",
    "name": "全家京林店",
    "tel": "02-25674711",
    "address": "台北市中山區南京東路二段７２號１樓、７２－２號",
    "lon": 121.530705,
    "lat": 25.051889
  },
  {
    "city": "台北市",
    "district": "中山區",
    "name": "全家鑫興亞店",
    "tel": "02-25117690",
    "address": "台北市中山區南京東路二段２０號１樓",
    "lon": 121.528621,
    "lat": 25.05189
  },
  {
    "city": "台北市",
    "district": "中山區",
    "name": "全家京貿店",
    "tel": "02-25066873",
    "address": "台北市中山區南京東路三段６５號",
    "lon": 121.538356,
    "lat": 25.052193
  },
  {
    "city": "台北市",
    "district": "中山區",
    "name": "全家建國北路店",
    "tel": "02-25170327",
    "address": "台北市中山區建國北路一段１４６號１樓",
    "lon": 121.536356,
    "lat": 25.051262
  },
  {
    "city": "台北市",
    "district": "中山區",
    "name": "全家建錦店",
    "tel": "02-25065447",
    "address": "台北市中山區建國北路二段１３１號１樓及部分地下室",
    "lon": 121.53732,
    "lat": 25.0602
  },
  {
    "city": "台北市",
    "district": "中山區",
    "name": "全家欣濱江店",
    "tel": "02-25159357",
    "address": "台北市中山區建國北路三段１０９號１樓",
    "lon": 121.536061,
    "lat": 25.066304
  },
  {
    "city": "台北市",
    "district": "中山區",
    "name": "全家新衡山店",
    "tel": "02-25332342",
    "address": "台北市中山區通北街１１１號",
    "lon": 121.538093,
    "lat": 25.083917
  },
  {
    "city": "台北市",
    "district": "中山區",
    "name": "全家新復店",
    "tel": "02-25097685",
    "address": "台北市中山區復興北路５１４巷３５號",
    "lon": 121.542588,
    "lat": 25.066095
  },
  {
    "city": "台北市",
    "district": "中山區",
    "name": "全家復崙店",
    "tel": "02-27526542",
    "address": "台北市中山區復興北路３８號１樓",
    "lon": 121.543749,
    "lat": 25.049251
  },
  {
    "city": "台北市",
    "district": "中山區",
    "name": "全家金復店",
    "tel": "02-28924021",
    "address": "台北市中山區復興北路３５６號１樓",
    "lon": 121.543957,
    "lat": 25.060392
  },
  {
    "city": "台北市",
    "district": "中山區",
    "name": "全家南京復興店",
    "tel": "02-27151377",
    "address": "台北市中山區復興北路１５４號１Ｆ",
    "lon": 121.543789,
    "lat": 25.053173
  },
  {
    "city": "台北市",
    "district": "中山區",
    "name": "全家復德店",
    "tel": "02-87722605",
    "address": "台北市中山區復興南路一段４２號１樓",
    "lon": 121.543662,
    "lat": 25.045308
  },
  {
    "city": "台北市",
    "district": "中山區",
    "name": "全家鑫通店",
    "tel": "02-25817485",
    "address": "台北市中山區新生北路一段１１６號",
    "lon": 121.527818,
    "lat": 25.050605
  },
  {
    "city": "台北市",
    "district": "中山區",
    "name": "全家美林店",
    "tel": "02-25678382",
    "address": "台北市中山區新生北路二段６２巷３８－３號",
    "lon": 121.525868,
    "lat": 25.056139
  },
  {
    "city": "台北市",
    "district": "中山區",
    "name": "全家新農店",
    "tel": "02-25968538",
    "address": "台北市中山區恆安里農安街２６之３號一樓",
    "lon": 121.526198,
    "lat": 25.064808
  },
  {
    "city": "台北市",
    "district": "中山區",
    "name": "全家新晴店",
    "tel": "02-25955820",
    "address": "台北市中山區農安街４－１號",
    "lon": 121.52306,
    "lat": 25.064891
  },
  {
    "city": "台北市",
    "district": "中山區",
    "name": "全家松農店",
    "tel": "02-25028032",
    "address": "台北市中山區農安街１６０號",
    "lon": 121.533959,
    "lat": 25.064609
  },
  {
    "city": "台北市",
    "district": "中山區",
    "name": "全家農安店",
    "tel": "02-25042520",
    "address": "台北市中山區農安街２４９號",
    "lon": 121.534926,
    "lat": 25.06479
  },
  {
    "city": "台北市",
    "district": "中山區",
    "name": "全家光輝店",
    "tel": "02-25955703",
    "address": "台北市中山區晴光里德惠街３４之２號一樓",
    "lon": 121.526479,
    "lat": 25.066585
  },
  {
    "city": "台北市",
    "district": "中山區",
    "name": "全家新德城店",
    "tel": "02-25995447",
    "address": "台北市中山區德惠街１６－７號",
    "lon": 121.524672,
    "lat": 25.066625
  },
  {
    "city": "台北市",
    "district": "中山區",
    "name": "全家德林店",
    "tel": "02-25961560",
    "address": "台北市中山區德惠街１７３號",
    "lon": 121.531905,
    "lat": 25.06668
  },
  {
    "city": "台北市",
    "district": "中山區",
    "name": "全家撫順店",
    "tel": "02-25927495",
    "address": "台北市中山區撫順街１２之２號１樓",
    "lon": 121.520853,
    "lat": 25.063558
  },
  {
    "city": "台北市",
    "district": "中山區",
    "name": "全家樂群店",
    "tel": "02-85095167",
    "address": "台北市中山區樂群二路１８６號",
    "lon": 121.558474,
    "lat": 25.079595
  },
  {
    "city": "台北市",
    "district": "中山區",
    "name": "全家美麗店",
    "tel": "02-85011290",
    "address": "台北市中山區樂群二路１４２號１樓",
    "lon": 121.556824,
    "lat": 25.079748
  },
  {
    "city": "台北市",
    "district": "中山區",
    "name": "全家時代廣場店",
    "tel": "02-85015684",
    "address": "台北市中山區樂群二路２６５巷２０號",
    "lon": 121.560663,
    "lat": 25.081236
  },
  {
    "city": "台北市",
    "district": "中山區",
    "name": "全家興安店",
    "tel": "02-25052013",
    "address": "台北市中山區興安街５７號",
    "lon": 121.542324,
    "lat": 25.056201
  },
  {
    "city": "台北市",
    "district": "中山區",
    "name": "全家錦江店",
    "tel": "02-25638875",
    "address": "台北市中山區錦州街２１５號",
    "lon": 121.532157,
    "lat": 25.060419
  },
  {
    "city": "台北市",
    "district": "中山區",
    "name": "全家新北大店",
    "tel": "02-25172305",
    "address": "台北市中山區錦州街４２７號",
    "lon": 121.542451,
    "lat": 25.060303
  },
  {
    "city": "台北市",
    "district": "中山區",
    "name": "全家錦西店",
    "tel": "02-25673231",
    "address": "台北市中山區錦西街８號",
    "lon": 121.521667,
    "lat": 25.060275
  },
  {
    "city": "台北市",
    "district": "中山區",
    "name": "全家中興店",
    "tel": "02-25012043",
    "address": "台北市中山區龍江路２０１號１Ｆ",
    "lon": 121.540605,
    "lat": 25.056277
  },
  {
    "city": "台北市",
    "district": "中山區",
    "name": "全家鑫豐店",
    "tel": "02-25157030",
    "address": "台北市中山區龍江路３５６巷７２號",
    "lon": 121.537996,
    "lat": 25.065936
  },
  {
    "city": "台北市",
    "district": "中山區",
    "name": "全家新南京店",
    "tel": "02-87725827",
    "address": "台北市中山區龍江路９５號１樓",
    "lon": 121.540555,
    "lat": 25.051424
  },
  {
    "city": "台北市",
    "district": "中山區",
    "name": "全家榮星店",
    "tel": "02-25169569",
    "address": "台北市中山區龍江路３５２號",
    "lon": 121.540849,
    "lat": 25.065891
  },
  {
    "city": "台北市",
    "district": "中山區",
    "name": "全家龍京店",
    "tel": "02-25082793",
    "address": "台北市中山區龍江路１０２號１樓",
    "lon": 121.540322,
    "lat": 25.052669
  },
  {
    "city": "台北市",
    "district": "中山區",
    "name": "全家雙城店",
    "tel": "02-25996056",
    "address": "台北市中山區雙城街１２之１號",
    "lon": 121.524221,
    "lat": 25.064541
  },
  {
    "city": "台北市",
    "district": "中山區",
    "name": "全家雙林店",
    "tel": "02-25992453",
    "address": "台北市中山區雙城街２之２號",
    "lon": 121.524311,
    "lat": 25.063211
  },
  {
    "city": "台北市",
    "district": "中山區",
    "name": "全家金磚店",
    "tel": "02-25994347",
    "address": "台北市中山區雙城街１９巷２號",
    "lon": 121.524514,
    "lat": 25.065333
  },
  {
    "city": "台北市",
    "district": "萬華區",
    "name": "全家民和店",
    "tel": "02-23039216",
    "address": "台北市萬華區民和街９號１樓",
    "lon": 121.499845,
    "lat": 25.026251
  },
  {
    "city": "台北市",
    "district": "萬華區",
    "name": "全家鑫都店",
    "tel": "02-23885903",
    "address": "台北市萬華區成都路７１號１樓",
    "lon": 121.505574,
    "lat": 25.042955
  },
  {
    "city": "台北市",
    "district": "萬華區",
    "name": "全家昌林店",
    "tel": "02-23028932",
    "address": "台北市萬華區西昌街１７０號１樓",
    "lon": 121.500466,
    "lat": 25.038189
  },
  {
    "city": "台北市",
    "district": "萬華區",
    "name": "全家萬園店",
    "tel": "02-23040410",
    "address": "台北市萬華區西園路一段１５９號壹樓",
    "lon": 121.499378,
    "lat": 25.035019
  },
  {
    "city": "台北市",
    "district": "萬華區",
    "name": "全家金園店",
    "tel": "02-23083402",
    "address": "臺北市萬華區西園路二段１４０巷４２號",
    "lon": 121.495164,
    "lat": 25.031294
  },
  {
    "city": "台北市",
    "district": "萬華區",
    "name": "全家萬年店",
    "tel": "02-23883343",
    "address": "台北市萬華區西寧南路１５５號１樓",
    "lon": 121.506211,
    "lat": 25.043553
  },
  {
    "city": "台北市",
    "district": "萬華區",
    "name": "全家西寧南路店",
    "tel": "02-25469055",
    "address": "台北市萬華區西寧南路３１－１號",
    "lon": 121.507453,
    "lat": 25.047748
  },
  {
    "city": "台北市",
    "district": "萬華區",
    "name": "全家和西店",
    "tel": "02-23080749",
    "address": "台北市萬華區愛鄉里和平西路三段２９０之５號、２９０",
    "lon": 121.494543,
    "lat": 25.035114
  },
  {
    "city": "台北市",
    "district": "萬華區",
    "name": "全家昆明店",
    "tel": "02-23705910",
    "address": "台北市萬華區昆明街１８６號１樓",
    "lon": 121.504376,
    "lat": 25.041328
  },
  {
    "city": "台北市",
    "district": "萬華區",
    "name": "全家成都店",
    "tel": "02-23758507",
    "address": "台北市萬華區昆明街１３４號；成都路８６號",
    "lon": 121.504662,
    "lat": 25.042832
  },
  {
    "city": "台北市",
    "district": "萬華區",
    "name": "全家廣明店",
    "tel": "02-23115442",
    "address": "台北市萬華區昆明街１７３號１樓",
    "lon": 121.504263,
    "lat": 25.039893
  },
  {
    "city": "台北市",
    "district": "萬華區",
    "name": "全家東園店",
    "tel": "02-23327420",
    "address": "台北市萬華區東園街６９號",
    "lon": 121.496441,
    "lat": 25.026087
  },
  {
    "city": "台北市",
    "district": "萬華區",
    "name": "全家萬東店",
    "tel": "02-23077891",
    "address": "台北市萬華區東園街１７４號１樓",
    "lon": 121.498021,
    "lat": 25.022403
  },
  {
    "city": "台北市",
    "district": "萬華區",
    "name": "全家鑫吉利店",
    "tel": "02-23378557",
    "address": "台北市萬華區東園街２８巷３４號",
    "lon": 121.495038,
    "lat": 25.026846
  },
  {
    "city": "台北市",
    "district": "萬華區",
    "name": "全家長泰店",
    "tel": "02-23034841",
    "address": "台北市萬華區壽德里長泰街２號２之１號一樓",
    "lon": 121.501383,
    "lat": 25.023228
  },
  {
    "city": "台北市",
    "district": "萬華區",
    "name": "全家公園店",
    "tel": "02-23051904",
    "address": "台北市萬華區青年路４８號",
    "lon": 121.503943,
    "lat": 25.025487
  },
  {
    "city": "台北市",
    "district": "萬華區",
    "name": "全家日祥店",
    "tel": "02-23331039",
    "address": "台北市萬華區青年路１５４號、１６８巷２弄１４號１樓",
    "lon": 121.502354,
    "lat": 25.02115
  },
  {
    "city": "台北市",
    "district": "萬華區",
    "name": "全家新青年店",
    "tel": "02-23331983",
    "address": "臺北市萬華區青年路６號",
    "lon": 121.506166,
    "lat": 25.026145
  },
  {
    "city": "台北市",
    "district": "萬華區",
    "name": "全家新峨嵋店",
    "tel": "02-23711411",
    "address": "台北市萬華區峨眉街８２號１樓",
    "lon": 121.504043,
    "lat": 25.044174
  },
  {
    "city": "台北市",
    "district": "萬華區",
    "name": "全家萬國店",
    "tel": "02-23894642",
    "address": "台北市萬華區峨眉街２１號１樓",
    "lon": 121.507367,
    "lat": 25.043509
  },
  {
    "city": "台北市",
    "district": "萬華區",
    "name": "全家桂林店",
    "tel": "02-23318161",
    "address": "台北市萬華區桂林路２３號１樓",
    "lon": 121.505071,
    "lat": 25.037948
  },
  {
    "city": "台北市",
    "district": "萬華區",
    "name": "全家康定店",
    "tel": "02-23899260",
    "address": "台北市萬華區康定路７３號",
    "lon": 121.502188,
    "lat": 25.040745
  },
  {
    "city": "台北市",
    "district": "萬華區",
    "name": "全家康陽店",
    "tel": "02-23812716",
    "address": "台北市萬華區康定路９９號",
    "lon": 121.502026,
    "lat": 25.039668
  },
  {
    "city": "台北市",
    "district": "萬華區",
    "name": "全家康勝店",
    "tel": "02-23821077",
    "address": "台北市萬華區康定路６０號１樓",
    "lon": 121.5023,
    "lat": 25.042566
  },
  {
    "city": "台北市",
    "district": "萬華區",
    "name": "全家萬華車站店",
    "tel": "02-23040630",
    "address": "臺北市萬華區康定路３８２號",
    "lon": 121.500268,
    "lat": 25.03355
  },
  {
    "city": "台北市",
    "district": "萬華區",
    "name": "全家康華店",
    "tel": "02-23027338",
    "address": "台北市萬華區康定路２２９號１樓",
    "lon": 121.501343,
    "lat": 25.035447
  },
  {
    "city": "台北市",
    "district": "萬華區",
    "name": "全家新富民店",
    "tel": "02-23070071",
    "address": "台北市萬華區富民路９１巷８號１樓",
    "lon": 121.49925,
    "lat": 25.018948
  },
  {
    "city": "台北市",
    "district": "萬華區",
    "name": "全家貴陽店",
    "tel": "02-23891854",
    "address": "台北市萬華區貴陽街二段１８２號，１８４號",
    "lon": 121.500542,
    "lat": 25.040123
  },
  {
    "city": "台北市",
    "district": "萬華區",
    "name": "全家新武成店",
    "tel": "02-23326103",
    "address": "台北市萬華區萬大路４８６巷５９弄１號１樓",
    "lon": 121.495879,
    "lat": 25.020386
  },
  {
    "city": "台北市",
    "district": "萬華區",
    "name": "全家萬大店",
    "tel": "02-23040610",
    "address": "台北市萬華區萬大路６４號１樓",
    "lon": 121.500386,
    "lat": 25.030998
  },
  {
    "city": "台北市",
    "district": "萬華區",
    "name": "全家萬武店",
    "tel": "02-23072936",
    "address": "台北市萬華區萬大路４２４巷１１２之４號１樓",
    "lon": 121.49516,
    "lat": 25.021173
  },
  {
    "city": "台北市",
    "district": "萬華區",
    "name": "全家萬明店",
    "tel": "02-23119635",
    "address": "台北市萬華區漢口街二段６７之２號１樓",
    "lon": 121.50551,
    "lat": 25.046114
  },
  {
    "city": "台北市",
    "district": "萬華區",
    "name": "全家萬中店",
    "tel": "02-23887636",
    "address": "台北市萬華區漢口街二段２２號",
    "lon": 121.50807,
    "lat": 25.045322
  },
  {
    "city": "台北市",
    "district": "萬華區",
    "name": "全家漢中店",
    "tel": "02-23141275",
    "address": "台北市萬華區漢中街１３９號１樓",
    "lon": 121.507281,
    "lat": 25.041718
  },
  {
    "city": "台北市",
    "district": "萬華區",
    "name": "全家龍廣店",
    "tel": "02-23026434",
    "address": "台北市萬華區廣州街２０３號１．２樓",
    "lon": 121.50041,
    "lat": 25.036832
  },
  {
    "city": "台北市",
    "district": "萬華區",
    "name": "全家新廣州店",
    "tel": "02-23027354",
    "address": "台北市萬華區廣州街２３５－１號",
    "lon": 121.498563,
    "lat": 25.036837
  },
  {
    "city": "台北市",
    "district": "萬華區",
    "name": "全家園寶店",
    "tel": "02-23035528",
    "address": "台北市萬華區興義街５１號１樓",
    "lon": 121.491489,
    "lat": 25.026402
  },
  {
    "city": "台北市",
    "district": "萬華區",
    "name": "全家環河店",
    "tel": "02-23085327",
    "address": "台北市萬華區環河南路二段２５０巷４４號１樓",
    "lon": 121.490723,
    "lat": 25.033876
  },
  {
    "city": "台北市",
    "district": "萬華區",
    "name": "全家綠堤店",
    "tel": "02-23041210",
    "address": "台北市萬華區環河南路二段１７３號",
    "lon": 121.492299,
    "lat": 25.032933
  },
  {
    "city": "台北市",
    "district": "萬華區",
    "name": "全家環南店",
    "tel": "02-23026891",
    "address": "台北市萬華區環河南路二段２９８號",
    "lon": 121.490648,
    "lat": 25.031478
  },
  {
    "city": "台北市",
    "district": "萬華區",
    "name": "全家寶元店",
    "tel": "02-23099925",
    "address": "台北市萬華區寶興街４０號",
    "lon": 121.493322,
    "lat": 25.027289
  },
  {
    "city": "台北市",
    "district": "萬華區",
    "name": "全家寶興店",
    "tel": "02-23013308",
    "address": "台北市萬華區寶興街７８號",
    "lon": 121.494186,
    "lat": 25.026085
  },
  {
    "city": "台北市",
    "district": "信義區",
    "name": "全家大道店",
    "tel": "02-27276692",
    "address": "台北市信義區大道路７９號１樓",
    "lon": 121.582581,
    "lat": 25.040795
  },
  {
    "city": "台北市",
    "district": "信義區",
    "name": "全家信吉店",
    "tel": "02-27866062",
    "address": "台北市信義區中坡北路２５號",
    "lon": 121.580781,
    "lat": 25.044996
  },
  {
    "city": "台北市",
    "district": "信義區",
    "name": "全家協和店",
    "tel": "02-27590819",
    "address": "台北市信義區中坡南路３８號１Ｆ",
    "lon": 121.583348,
    "lat": 25.042835
  },
  {
    "city": "台北市",
    "district": "信義區",
    "name": "全家新中坡店",
    "tel": "02-27270460",
    "address": "台北市信義區中坡南路２２９號",
    "lon": 121.585062,
    "lat": 25.040642
  },
  {
    "city": "台北市",
    "district": "信義區",
    "name": "全家台北１０１店",
    "tel": "02-81017976",
    "address": "台北市信義區市府路４５號Ｂ１（商場編號５３）",
    "lon": 121.563859,
    "lat": 25.034089
  },
  {
    "city": "台北市",
    "district": "信義區",
    "name": "全家厚雅店",
    "tel": "02-27659814",
    "address": "台北市信義區永吉路３０巷１１８號１樓",
    "lon": 121.568603,
    "lat": 25.043129
  },
  {
    "city": "台北市",
    "district": "信義區",
    "name": "全家永吉二店",
    "tel": "02-27491648",
    "address": "台北市信義區永吉路２２３號",
    "lon": 121.573965,
    "lat": 25.045758
  },
  {
    "city": "台北市",
    "district": "信義區",
    "name": "全家光復南路店",
    "tel": "02-27294291",
    "address": "台北市信義區光復南路４４７之２號",
    "lon": 121.557647,
    "lat": 25.035201
  },
  {
    "city": "台北市",
    "district": "信義區",
    "name": "全家復昌店",
    "tel": "02-23459489",
    "address": "台北市信義區光復南路５０５號、５０７號及文昌街３２",
    "lon": 121.557596,
    "lat": 25.032031
  },
  {
    "city": "台北市",
    "district": "信義區",
    "name": "全家松創店",
    "tel": "02-27495690",
    "address": "台北市信義區光復南路１３３號（一號變電站庫房）",
    "lon": 121.558136,
    "lat": 25.043948
  },
  {
    "city": "台北市",
    "district": "信義區",
    "name": "全家富興店",
    "tel": "02-27326104",
    "address": "台北市信義區吳興街１５６巷１６弄１號１樓",
    "lon": 121.560954,
    "lat": 25.028813
  },
  {
    "city": "台北市",
    "district": "信義區",
    "name": "全家挹翠店",
    "tel": "02-25475096",
    "address": "台北市信義區吳興街６００巷５６號",
    "lon": 121.569823,
    "lat": 25.020367
  },
  {
    "city": "台北市",
    "district": "信義區",
    "name": "全家盛興店",
    "tel": "02-27201400",
    "address": "台北市信義區吳興街３３４號",
    "lon": 121.56586,
    "lat": 25.026098
  },
  {
    "city": "台北市",
    "district": "信義區",
    "name": "全家北醫店",
    "tel": "02-27229824",
    "address": "台北市信義區吳興街２６３號",
    "lon": 121.56384,
    "lat": 25.026992
  },
  {
    "city": "台北市",
    "district": "信義區",
    "name": "全家三興店",
    "tel": "02-27232796",
    "address": "台北市信義區吳興街７號",
    "lon": 121.559466,
    "lat": 25.031759
  },
  {
    "city": "台北市",
    "district": "信義區",
    "name": "全家六張黎店",
    "tel": "02-27338739",
    "address": "台北市信義區和平東路三段３８７號",
    "lon": 121.55755,
    "lat": 25.019886
  },
  {
    "city": "台北市",
    "district": "信義區",
    "name": "全家忠信店",
    "tel": "02-27422963",
    "address": "台北市信義區忠孝東路五段４２５號１樓及地下室",
    "lon": 121.575402,
    "lat": 25.041055
  },
  {
    "city": "台北市",
    "district": "信義區",
    "name": "全家忠美店",
    "tel": "02-27274597",
    "address": "台北市信義區忠孝東路五段４９８號１樓及地下１樓",
    "lon": 121.578449,
    "lat": 25.04098
  },
  {
    "city": "台北市",
    "district": "信義區",
    "name": "全家新忠隆店",
    "tel": "02-27493532",
    "address": "台北市信義區忠孝東路五段７１巷８號壹樓",
    "lon": 121.567217,
    "lat": 25.04179
  },
  {
    "city": "台北市",
    "district": "信義區",
    "name": "全家松安店",
    "tel": "02-87683628",
    "address": "台北市信義區忠孝東路五段４６５號１樓",
    "lon": 121.577093,
    "lat": 25.041042
  },
  {
    "city": "台北市",
    "district": "信義區",
    "name": "全家國館捷運站店",
    "tel": "02-27491993",
    "address": "臺北市信義區忠孝東路４段４００號Ｂ１",
    "lon": 121.557901,
    "lat": 25.041134
  },
  {
    "city": "台北市",
    "district": "信義區",
    "name": "全家大巨蛋店",
    "tel": "02-27563813",
    "address": "台北市信義區忠孝東路四段５１５號Ｂ１樓Ｃ－Ｂ１０２",
    "lon": 121.55953,
    "lat": 25.042315
  },
  {
    "city": "台北市",
    "district": "信義區",
    "name": "全家大巨蛋２店",
    "tel": "02-27563663",
    "address": "台北市信義區忠孝東路四段５１５號Ｂ２樓Ｃ－Ｂ２１２",
    "lon": 121.55953,
    "lat": 25.042315
  },
  {
    "city": "台北市",
    "district": "信義區",
    "name": "全家聯合店",
    "tel": "02-27685432",
    "address": "台北市信義區忠孝東路四段５５３巷６弄１７號１樓",
    "lon": 121.563485,
    "lat": 25.042342
  },
  {
    "city": "台北市",
    "district": "信義區",
    "name": "全家松盛店",
    "tel": "02-27606140",
    "address": "台北市信義區松山路１５３號",
    "lon": 121.577956,
    "lat": 25.04655
  },
  {
    "city": "台北市",
    "district": "信義區",
    "name": "全家松傑店",
    "tel": "02-27656379",
    "address": "台北市信義區松山路１１號地下１樓",
    "lon": 121.578971,
    "lat": 25.049183
  },
  {
    "city": "台北市",
    "district": "信義區",
    "name": "全家松山車站店",
    "tel": "02-27471585",
    "address": "台北市信義區松山路１１號",
    "lon": 121.578971,
    "lat": 25.049183
  },
  {
    "city": "台北市",
    "district": "信義區",
    "name": "全家南山廣場店",
    "tel": "02-27585233",
    "address": "台北市信義區松仁路１００號６樓之１",
    "lon": 121.568126,
    "lat": 25.03446
  },
  {
    "city": "台北市",
    "district": "信義區",
    "name": "全家新安興店",
    "tel": "02-27204938",
    "address": "台北市信義區松仁路２４０巷２號",
    "lon": 121.569154,
    "lat": 25.024843
  },
  {
    "city": "台北市",
    "district": "信義區",
    "name": "全家永孝店",
    "tel": "02-27678185",
    "address": "台北市信義區松信路１４５號",
    "lon": 121.572108,
    "lat": 25.043596
  },
  {
    "city": "台北市",
    "district": "信義區",
    "name": "全家建鑫店",
    "tel": "02-27233205",
    "address": "台北市信義區松壽路２４號",
    "lon": 121.567833,
    "lat": 25.035583
  },
  {
    "city": "台北市",
    "district": "信義區",
    "name": "全家新信德店",
    "tel": "02-23465799",
    "address": "台北市信義區松德路２８３號",
    "lon": 121.574732,
    "lat": 25.03244
  },
  {
    "city": "台北市",
    "district": "信義區",
    "name": "全家信安店",
    "tel": "02-87895039",
    "address": "台北市信義區松德路２００巷１３號１樓",
    "lon": 121.573714,
    "lat": 25.034506
  },
  {
    "city": "台北市",
    "district": "信義區",
    "name": "全家新松林店",
    "tel": "02-27493109",
    "address": "台北市信義區虎林街６１－４號",
    "lon": 121.577066,
    "lat": 25.046286
  },
  {
    "city": "台北市",
    "district": "信義區",
    "name": "全家欣富台店",
    "tel": "02-27491525",
    "address": "台北市信義區虎林街１２０巷１６５號",
    "lon": 121.574119,
    "lat": 25.042269
  },
  {
    "city": "台北市",
    "district": "信義區",
    "name": "全家忠林店",
    "tel": "02-87891305",
    "address": "台北市信義區虎林街１６６號１樓及地下室",
    "lon": 121.576493,
    "lat": 25.039201
  },
  {
    "city": "台北市",
    "district": "信義區",
    "name": "全家永林店",
    "tel": "02-27470209",
    "address": "台北市信義區虎林街８２巷２３號",
    "lon": 121.576217,
    "lat": 25.043395
  },
  {
    "city": "台北市",
    "district": "信義區",
    "name": "全家海華店",
    "tel": "02-87890667",
    "address": "台北市信義區虎林街１３２巷８１號１樓",
    "lon": 121.574071,
    "lat": 25.040292
  },
  {
    "city": "台北市",
    "district": "信義區",
    "name": "全家祥和店",
    "tel": "02-27291793",
    "address": "台北市信義區信義路五段１５０巷４０１弄３１號",
    "lon": 121.57042,
    "lat": 25.024201
  },
  {
    "city": "台北市",
    "district": "信義區",
    "name": "全家松仁店",
    "tel": "02-27237309",
    "address": "台北市信義區信義路５段１５０巷２２１號",
    "lon": 121.568813,
    "lat": 25.028444
  },
  {
    "city": "台北市",
    "district": "信義區",
    "name": "全家松友店",
    "tel": "02-23460402",
    "address": "台北市信義區信義路六段７８號",
    "lon": 121.576969,
    "lat": 25.035288
  },
  {
    "city": "台北市",
    "district": "信義區",
    "name": "全家新貿店",
    "tel": "02-87802293",
    "address": "臺北市信義區信義路四段４０７號壹樓",
    "lon": 121.558895,
    "lat": 25.033272
  },
  {
    "city": "台北市",
    "district": "信義區",
    "name": "全家永隆店",
    "tel": "02-27678120",
    "address": "台北市信義區基隆路１段１４７巷７號",
    "lon": 121.56614,
    "lat": 25.0425
  },
  {
    "city": "台北市",
    "district": "信義區",
    "name": "全家財盛店",
    "tel": "02-27130655",
    "address": "台北市信義區基隆路二段１１３之２號",
    "lon": 121.557184,
    "lat": 25.028657
  },
  {
    "city": "台北市",
    "district": "信義區",
    "name": "全家崇德店",
    "tel": "02-27333493",
    "address": "台北市信義區崇德街２９號",
    "lon": 121.553809,
    "lat": 25.024369
  },
  {
    "city": "台北市",
    "district": "信義區",
    "name": "全家莊新店",
    "tel": "02-27581883",
    "address": "台北市信義區莊敬路３０７號",
    "lon": 121.563374,
    "lat": 25.028456
  },
  {
    "city": "台北市",
    "district": "信義區",
    "name": "全家莊敬店",
    "tel": "02-27201156",
    "address": "台北市信義區莊敬路３７４號",
    "lon": 121.564895,
    "lat": 25.02755
  },
  {
    "city": "台北市",
    "district": "信義區",
    "name": "全家景聯店",
    "tel": "02-87861164",
    "address": "台北市信義區莊敬路１９０號１樓及地下室",
    "lon": 121.56113,
    "lat": 25.030796
  },
  {
    "city": "台北市",
    "district": "信義區",
    "name": "全家逸鑫店",
    "tel": "02-27206664",
    "address": "台北市信義區逸仙路４２巷２３號",
    "lon": 121.563068,
    "lat": 25.040385
  },
  {
    "city": "台北市",
    "district": "信義區",
    "name": "全家廣慈店",
    "tel": "02-27599373",
    "address": "台北市信義區福德街８４巷３２號１樓",
    "lon": 121.58132,
    "lat": 25.038416
  },
  {
    "city": "台北市",
    "district": "松山區",
    "name": "全家鑫德店",
    "tel": "02-87717609",
    "address": "臺北市松山區八德路二段４００號",
    "lon": 121.54657,
    "lat": 25.048073
  },
  {
    "city": "台北市",
    "district": "松山區",
    "name": "全家台發店",
    "tel": "02-25781936",
    "address": "台北市松山區八德路三段３０號壹樓（如附圖）",
    "lon": 121.551527,
    "lat": 25.04811
  },
  {
    "city": "台北市",
    "district": "松山區",
    "name": "全家鑫中崙店",
    "tel": "02-25792721",
    "address": "台北市松山區八德路三段１２巷５１弄５０號１樓",
    "lon": 121.552401,
    "lat": 25.046104
  },
  {
    "city": "台北市",
    "district": "松山區",
    "name": "全家松慈店",
    "tel": "02-27466249",
    "address": "台北市松山區八德路四段６７６號",
    "lon": 121.576343,
    "lat": 25.049901
  },
  {
    "city": "台北市",
    "district": "松山區",
    "name": "全家寶清店",
    "tel": "02-27532857",
    "address": "台北市松山區八德路四段５９８號１樓",
    "lon": 121.572405,
    "lat": 25.049818
  },
  {
    "city": "台北市",
    "district": "松山區",
    "name": "全家復盛店",
    "tel": "02-27619127",
    "address": "台北市松山區八德路四段４０號．４２號",
    "lon": 121.559211,
    "lat": 25.048254
  },
  {
    "city": "台北市",
    "district": "松山區",
    "name": "全家三富店",
    "tel": "02-27677510",
    "address": "台北市松山區三民路１４８號",
    "lon": 121.563339,
    "lat": 25.061049
  },
  {
    "city": "台北市",
    "district": "松山區",
    "name": "全家京民店",
    "tel": "02-27422080",
    "address": "台北市松山區三民路６號＋Ｂ１",
    "lon": 121.563917,
    "lat": 25.052166
  },
  {
    "city": "台北市",
    "district": "松山區",
    "name": "全家常興店",
    "tel": "02-25464600",
    "address": "台北市松山區五常街３６４號１樓",
    "lon": 121.544865,
    "lat": 25.064245
  },
  {
    "city": "台北市",
    "district": "松山區",
    "name": "全家微風店",
    "tel": "02-87719880",
    "address": "台北市松山區市民大道四段５１號１樓",
    "lon": 121.546099,
    "lat": 25.045349
  },
  {
    "city": "台北市",
    "district": "松山區",
    "name": "全家豐興店",
    "tel": "02-25471001",
    "address": "台北市松山區民生東路三段１３０巷５弄２２號",
    "lon": 121.547117,
    "lat": 25.056968
  },
  {
    "city": "台北市",
    "district": "松山區",
    "name": "全家豐禾店",
    "tel": "02-27126702",
    "address": "台北市松山區民生東路三段１３０巷５弄２號",
    "lon": 121.546337,
    "lat": 25.056974
  },
  {
    "city": "台北市",
    "district": "松山區",
    "name": "全家豐華店",
    "tel": "02-27123226",
    "address": "台北市松山區民生東路三段１１３巷６弄１號一樓",
    "lon": 121.546023,
    "lat": 25.058587
  },
  {
    "city": "台北市",
    "district": "松山區",
    "name": "全家昇東店",
    "tel": "02-27491649",
    "address": "台北市松山區民生東路五段１９７號",
    "lon": 121.566063,
    "lat": 25.059231
  },
  {
    "city": "台北市",
    "district": "松山區",
    "name": "全家東豐店",
    "tel": "02-27612771",
    "address": "台北市松山區民生東路五段３７號",
    "lon": 121.55689,
    "lat": 25.058545
  },
  {
    "city": "台北市",
    "district": "松山區",
    "name": "全家松民店",
    "tel": "02-37652608",
    "address": "台北市松山區民生東路五段１５９號",
    "lon": 121.562479,
    "lat": 25.059087
  },
  {
    "city": "台北市",
    "district": "松山區",
    "name": "全家富泰店",
    "tel": "02-27460211",
    "address": "台北市松山區民生東路五段２０４－３號一樓",
    "lon": 121.564708,
    "lat": 25.058297
  },
  {
    "city": "台北市",
    "district": "松山區",
    "name": "全家鑫民復店",
    "tel": "02-25473532",
    "address": "台北市松山區民生東路四段８０巷１弄２號",
    "lon": 121.55312,
    "lat": 25.057583
  },
  {
    "city": "台北市",
    "district": "松山區",
    "name": "全家中央店",
    "tel": "02-25460351",
    "address": "台北市松山區民生東路四段９５號",
    "lon": 121.551972,
    "lat": 25.058141
  },
  {
    "city": "台北市",
    "district": "松山區",
    "name": "全家興北店",
    "tel": "02-27150977",
    "address": "台北市松山區民權東路三段１０３巷１５—１號",
    "lon": 121.545049,
    "lat": 25.063435
  },
  {
    "city": "台北市",
    "district": "松山區",
    "name": "全家新民有店",
    "tel": "02-87129937",
    "address": "台北市松山區民權東路三段１６０巷１１號",
    "lon": 121.547748,
    "lat": 25.060729
  },
  {
    "city": "台北市",
    "district": "松山區",
    "name": "全家復北店",
    "tel": "02-25468878",
    "address": "台北市松山區民權東路三段１０４號壹樓及地下室",
    "lon": 121.544806,
    "lat": 25.061904
  },
  {
    "city": "台北市",
    "district": "松山區",
    "name": "全家松指部店",
    "tel": "02-25475302",
    "address": "臺北市松山區民權東路四段１２１號（松指部）",
    "lon": 121.555797,
    "lat": 25.062161
  },
  {
    "city": "台北市",
    "district": "松山區",
    "name": "全家大理店",
    "tel": "02-27473064",
    "address": "台北市松山區光復北路１１巷５０號１樓",
    "lon": 121.559931,
    "lat": 25.049846
  },
  {
    "city": "台北市",
    "district": "松山區",
    "name": "全家新德光店",
    "tel": "02-25780506",
    "address": "台北市松山區光復南路３２巷４６－４號",
    "lon": 121.554312,
    "lat": 25.046203
  },
  {
    "city": "台北市",
    "district": "松山區",
    "name": "全家新大吉店",
    "tel": "02-27489223",
    "address": "台北市松山區吉祥路１９號",
    "lon": 121.562659,
    "lat": 25.049455
  },
  {
    "city": "台北市",
    "district": "松山區",
    "name": "全家成福店",
    "tel": "02-87716553",
    "address": "台北市南港區成福路４４號１樓",
    "lon": 121.586378,
    "lat": 25.044939
  },
  {
    "city": "台北市",
    "district": "松山區",
    "name": "全家塔悠店",
    "tel": "02-27420973",
    "address": "臺北市松山區延壽街２號一樓",
    "lon": 121.569051,
    "lat": 25.05724
  },
  {
    "city": "台北市",
    "district": "松山區",
    "name": "全家松壽店",
    "tel": "02-27474015",
    "address": "台北市松山區自強里延壽街３３０巷７弄２２號一樓",
    "lon": 121.562172,
    "lat": 25.05536
  },
  {
    "city": "台北市",
    "district": "松山區",
    "name": "全家長復店",
    "tel": "02-27500001",
    "address": "台北市松山區長安東路二段２１９號",
    "lon": 121.544824,
    "lat": 25.048365
  },
  {
    "city": "台北市",
    "district": "松山區",
    "name": "全家力晶店",
    "tel": "02-27213487",
    "address": "台北市松山區南京東路三段２５８號",
    "lon": 121.544801,
    "lat": 25.051634
  },
  {
    "city": "台北市",
    "district": "松山區",
    "name": "全家京萬店",
    "tel": "02-25464886",
    "address": "台北市南京東路三段３３３號",
    "lon": 121.547388,
    "lat": 25.051994
  },
  {
    "city": "台北市",
    "district": "松山區",
    "name": "全家京吉店",
    "tel": "02-27478279",
    "address": "台北市松山區南京東路五段１８０號",
    "lon": 121.563567,
    "lat": 25.051196
  },
  {
    "city": "台北市",
    "district": "松山區",
    "name": "全家新東寶店",
    "tel": "02-27605928",
    "address": "台北市松山區南京東路五段２９１巷１４號",
    "lon": 121.566045,
    "lat": 25.052267
  },
  {
    "city": "台北市",
    "district": "松山區",
    "name": "全家新東光店",
    "tel": "02-37652819",
    "address": "台北市松山區南京東路五段１２３巷１號１樓",
    "lon": 121.560674,
    "lat": 25.052167
  },
  {
    "city": "台北市",
    "district": "松山區",
    "name": "全家大盛店",
    "tel": "02-27650089",
    "address": "台北市松山區南京東路五段６６巷２弄１之１號１樓",
    "lon": 121.560515,
    "lat": 25.050865
  },
  {
    "city": "台北市",
    "district": "松山區",
    "name": "全家京盛店",
    "tel": "02-25795737",
    "address": "台北市松山區南京東路四段５６－１號１樓",
    "lon": 121.553896,
    "lat": 25.051387
  },
  {
    "city": "台北市",
    "district": "松山區",
    "name": "全家新健康店",
    "tel": "02-25462607",
    "address": "台北市松山區南京東路四段１３３巷９弄２號",
    "lon": 121.555215,
    "lat": 25.053172
  },
  {
    "city": "台北市",
    "district": "松山區",
    "name": "全家京鑽店",
    "tel": "02-25460775",
    "address": "台北市松山區南京東路四段４７號壹樓",
    "lon": 121.550849,
    "lat": 25.051937
  },
  {
    "city": "台北市",
    "district": "松山區",
    "name": "全家巨星超市店",
    "tel": "02-25770670",
    "address": "台北市松山區南京東路四段２號（１６、１７號店舖）",
    "lon": 121.550725,
    "lat": 25.051484
  },
  {
    "city": "台北市",
    "district": "松山區",
    "name": "全家京兆店",
    "tel": "02-27121962",
    "address": "台北市松山區南京東路四段１３７號壹樓",
    "lon": 121.555296,
    "lat": 25.051795
  },
  {
    "city": "台北市",
    "district": "松山區",
    "name": "全家小巨蛋二店",
    "tel": "02-25778220",
    "address": "台北市松山區南京東路四段２號１樓",
    "lon": 121.549954,
    "lat": 25.051356
  },
  {
    "city": "台北市",
    "district": "松山區",
    "name": "全家康寶店",
    "tel": "02-",
    "address": "台北市松山區健康路４００號１樓",
    "lon": 121.566094,
    "lat": 25.054091
  },
  {
    "city": "台北市",
    "district": "松山區",
    "name": "全家民康店",
    "tel": "02-27457090",
    "address": "台北市松山區健康路２８５號１樓",
    "lon": 121.564113,
    "lat": 25.054369
  },
  {
    "city": "台北市",
    "district": "松山區",
    "name": "全家康柏店",
    "tel": "02-27604612",
    "address": "台北市松山區健康路２２０號",
    "lon": 121.560983,
    "lat": 25.05389
  },
  {
    "city": "台北市",
    "district": "松山區",
    "name": "全家松醫店",
    "tel": "02-27600199",
    "address": "台北市松山區東光里健康路１５８號",
    "lon": 121.557897,
    "lat": 25.053463
  },
  {
    "city": "台北市",
    "district": "松山區",
    "name": "全家富錦店",
    "tel": "02-27455196",
    "address": "台北市松山區新益里富錦街５２９號一樓",
    "lon": 121.565374,
    "lat": 25.061276
  },
  {
    "city": "台北市",
    "district": "松山區",
    "name": "全家長城店",
    "tel": "02-27176687",
    "address": "台北市松山區敦化北路１２０巷８０號",
    "lon": 121.546151,
    "lat": 25.054321
  },
  {
    "city": "台北市",
    "district": "松山區",
    "name": "全家宏大店",
    "tel": "02-27183704",
    "address": "台北市松山區敦化北路１５５巷３號１樓",
    "lon": 121.549813,
    "lat": 25.05424
  },
  {
    "city": "台北市",
    "district": "松山區",
    "name": "全家敦中店",
    "tel": "02-87716763",
    "address": "台北市松山區敦化北路４巷１號",
    "lon": 121.547321,
    "lat": 25.050078
  },
  {
    "city": "台北市",
    "district": "松山區",
    "name": "全家宏勝店",
    "tel": "02-25455887",
    "address": "台北市松山區敦化北路１５３號１樓",
    "lon": 121.549442,
    "lat": 25.054153
  },
  {
    "city": "台北市",
    "district": "松山區",
    "name": "全家新東店",
    "tel": "02-27653580",
    "address": "台北市松山區新東街１４號",
    "lon": 121.566145,
    "lat": 25.057857
  },
  {
    "city": "台北市",
    "district": "松山區",
    "name": "全家慶城店",
    "tel": "02-25464461",
    "address": "台北市松山區中正里慶城街８號",
    "lon": 121.544776,
    "lat": 25.052639
  },
  {
    "city": "台北市",
    "district": "大安區",
    "name": "全家大安店",
    "tel": "02-27117896",
    "address": "台北市大安區大安路一段２０號",
    "lon": 121.546052,
    "lat": 25.044141
  },
  {
    "city": "台北市",
    "district": "大安區",
    "name": "全家仁慈店",
    "tel": "02-27089002",
    "address": "台北市大安區仁愛路四段４８巷６號",
    "lon": 121.546993,
    "lat": 25.037197
  },
  {
    "city": "台北市",
    "district": "大安區",
    "name": "全家明曜店",
    "tel": "02-27780326",
    "address": "台北市大安區仁愛路四段１５１巷３４號．３６號",
    "lon": 121.551641,
    "lat": 25.04027
  },
  {
    "city": "台北市",
    "district": "大安區",
    "name": "全家國泰店",
    "tel": "02-27542056",
    "address": "台北市大安區仁愛路四段２６６巷１５弄１０號１樓",
    "lon": 121.55354,
    "lat": 25.036529
  },
  {
    "city": "台北市",
    "district": "大安區",
    "name": "全家忠愛店",
    "tel": "02-27314580",
    "address": "台北市大安區仁愛路４段２７巷４３號",
    "lon": 121.545293,
    "lat": 25.041075
  },
  {
    "city": "台北市",
    "district": "大安區",
    "name": "全家敦新店",
    "tel": "02-27057671",
    "address": "台北市大安區敦安里仁愛路四段１１２巷５號一樓",
    "lon": 121.549707,
    "lat": 25.036986
  },
  {
    "city": "台北市",
    "district": "大安區",
    "name": "全家吉泰店",
    "tel": "02-27001566",
    "address": "台北市大安區仁愛路四段３００巷１１之１號",
    "lon": 121.554598,
    "lat": 25.037051
  },
  {
    "city": "台北市",
    "district": "大安區",
    "name": "全家通昌店",
    "tel": "02-23256420",
    "address": "台北市大安區文昌街１４２號壹樓全部",
    "lon": 121.553157,
    "lat": 25.032471
  },
  {
    "city": "台北市",
    "district": "大安區",
    "name": "全家安賢店",
    "tel": "02-27074252",
    "address": "臺北市大安區四維路１７０巷４號",
    "lon": 121.547787,
    "lat": 25.028077
  },
  {
    "city": "台北市",
    "district": "大安區",
    "name": "全家國父紀念館店",
    "tel": "02-27755468",
    "address": "台北市大安區光復南路２９２號（範圍如附圖）",
    "lon": 121.557407,
    "lat": 25.039227
  },
  {
    "city": "台北市",
    "district": "大安區",
    "name": "全家華視店",
    "tel": "02-27310238",
    "address": "台北市大安區光復南路１１６巷２６號",
    "lon": 121.556553,
    "lat": 25.042971
  },
  {
    "city": "台北市",
    "district": "大安區",
    "name": "全家光新店",
    "tel": "02-27849586",
    "address": "台北市大安區光復南路４１８號",
    "lon": 121.557358,
    "lat": 25.036554
  },
  {
    "city": "台北市",
    "district": "大安區",
    "name": "全家敦安店",
    "tel": "02-27019097",
    "address": "台北市大安區安和路一段１１２巷２７號",
    "lon": 121.550322,
    "lat": 25.034028
  },
  {
    "city": "台北市",
    "district": "大安區",
    "name": "全家安富店",
    "tel": "02-27755484",
    "address": "台北市大安區安和路一段４９巷１０號",
    "lon": 121.551614,
    "lat": 25.038461
  },
  {
    "city": "台北市",
    "district": "大安區",
    "name": "全家和信店",
    "tel": "02-27556391",
    "address": "台北市大安區安和路一段１０４號",
    "lon": 121.552279,
    "lat": 25.034182
  },
  {
    "city": "台北市",
    "district": "大安區",
    "name": "全家東方店",
    "tel": "02-27039578",
    "address": "台北市大安區安和路二段１０巷１０號壹樓及地下室",
    "lon": 121.551667,
    "lat": 25.03248
  },
  {
    "city": "台北市",
    "district": "大安區",
    "name": "全家樂和店",
    "tel": "02-27329745",
    "address": "台北市大安區安和路二段１６９號",
    "lon": 121.550109,
    "lat": 25.028229
  },
  {
    "city": "台北市",
    "district": "大安區",
    "name": "全家安居店",
    "tel": "02-27375452",
    "address": "台北市大安區安居街７６號",
    "lon": 121.553268,
    "lat": 25.019677
  },
  {
    "city": "台北市",
    "district": "大安區",
    "name": "全家辛亥店",
    "tel": "02-23778503",
    "address": "台北市大安區辛亥路二段１７１巷３號",
    "lon": 121.541159,
    "lat": 25.02196
  },
  {
    "city": "台北市",
    "district": "大安區",
    "name": "全家二繽店",
    "tel": "02-27372960",
    "address": "台北市大安區辛亥路三段３３０號",
    "lon": 121.552988,
    "lat": 25.013779
  },
  {
    "city": "台北市",
    "district": "大安區",
    "name": "全家台師店",
    "tel": "02-23682773",
    "address": "台北市大安區和平東路一段１６２號",
    "lon": 121.525892,
    "lat": 25.02643
  },
  {
    "city": "台北市",
    "district": "大安區",
    "name": "全家成功店",
    "tel": "02-27550428",
    "address": "台北市大安區和平東路二段３１１巷３２號",
    "lon": 121.545014,
    "lat": 25.025628
  },
  {
    "city": "台北市",
    "district": "大安區",
    "name": "全家和東店",
    "tel": "02-27324425",
    "address": "台北市大安區和平東路二段１０２之３號１樓",
    "lon": 121.541721,
    "lat": 25.02491
  },
  {
    "city": "台北市",
    "district": "大安區",
    "name": "全家和新店",
    "tel": "02-83691009",
    "address": "台北市大安區和平東路二段２２號",
    "lon": 121.536242,
    "lat": 25.025652
  },
  {
    "city": "台北市",
    "district": "大安區",
    "name": "全家和復店",
    "tel": "02-27540370",
    "address": "台北市大安區和平東路二段２６１號，２６３號",
    "lon": 121.543861,
    "lat": 25.025011
  },
  {
    "city": "台北市",
    "district": "大安區",
    "name": "全家國立教育店",
    "tel": "02-27325341",
    "address": "台北市大安區和平東路二段１３４號１樓",
    "lon": 121.544659,
    "lat": 25.024595
  },
  {
    "city": "台北市",
    "district": "大安區",
    "name": "全家和茂店",
    "tel": "02-27371408",
    "address": "台北市大安區和平東路三段５８號１樓",
    "lon": 121.548157,
    "lat": 25.024421
  },
  {
    "city": "台北市",
    "district": "大安區",
    "name": "全家延安二店",
    "tel": "02-87717379",
    "address": "台北市大安區延吉街１３０號",
    "lon": 121.554689,
    "lat": 25.040117
  },
  {
    "city": "台北市",
    "district": "大安區",
    "name": "全家延孝店",
    "tel": "02-27405319",
    "address": "台北市大安區延吉街１３５號之三，一樓",
    "lon": 121.554364,
    "lat": 25.042343
  },
  {
    "city": "台北市",
    "district": "大安區",
    "name": "全家昌隆店",
    "tel": "02-87733114",
    "address": "台北市大安區忠孝東路３段２１７巷２弄１號１樓",
    "lon": 121.539794,
    "lat": 25.04242
  },
  {
    "city": "台北市",
    "district": "大安區",
    "name": "全家正興店",
    "tel": "02-27316936",
    "address": "台北市大安區忠孝東路三段２４８巷６號",
    "lon": 121.541184,
    "lat": 25.041264
  },
  {
    "city": "台北市",
    "district": "大安區",
    "name": "全家忠孝光復店",
    "tel": "02-27790255",
    "address": "台北市大安區忠孝東路４段３０２號１樓東側部分",
    "lon": 121.55642,
    "lat": 25.041184
  },
  {
    "city": "台北市",
    "district": "大安區",
    "name": "全家忠孝延吉店",
    "tel": "02-27754165",
    "address": "台北市大安區忠孝東路４段３１５號１樓",
    "lon": 121.555907,
    "lat": 25.041598
  },
  {
    "city": "台北市",
    "district": "大安區",
    "name": "全家安勝店",
    "tel": "02-27790263",
    "address": "台北市大安區忠孝東路四段１８１巷６號１樓",
    "lon": 121.550671,
    "lat": 25.041848
  },
  {
    "city": "台北市",
    "district": "大安區",
    "name": "全家統領店",
    "tel": "02-27112125",
    "address": "台北市大安區忠孝東路四段１８１巷７弄２１號１樓部份",
    "lon": 121.551649,
    "lat": 25.042227
  },
  {
    "city": "台北市",
    "district": "大安區",
    "name": "全家龍普店",
    "tel": "02-87733622",
    "address": "台北市大安區忠孝東路４段１７０巷６弄２號",
    "lon": 121.550574,
    "lat": 25.040777
  },
  {
    "city": "台北市",
    "district": "大安區",
    "name": "全家延吉店",
    "tel": "02-27412630",
    "address": "台北市大安區忠孝東路四段２１６巷３１號",
    "lon": 121.553029,
    "lat": 25.03962
  },
  {
    "city": "台北市",
    "district": "大安區",
    "name": "全家頂好店",
    "tel": "02-87737075",
    "address": "台北市大安區忠孝東路四段７５號１樓",
    "lon": 121.547055,
    "lat": 25.041771
  },
  {
    "city": "台北市",
    "district": "大安區",
    "name": "全家政大金華店",
    "tel": "02-33432441",
    "address": "台北市大安區金華街１８７號１樓南側部分空間",
    "lon": 121.527597,
    "lat": 25.030158
  },
  {
    "city": "台北市",
    "district": "大安區",
    "name": "全家台興店",
    "tel": "02-27324804",
    "address": "台北市大安區長興街５０號",
    "lon": 121.544954,
    "lat": 25.01651
  },
  {
    "city": "台北市",
    "district": "大安區",
    "name": "全家金信店",
    "tel": "02-23587145",
    "address": "台北市大安區信義路二段１０４號１樓",
    "lon": 121.527498,
    "lat": 25.033812
  },
  {
    "city": "台北市",
    "district": "大安區",
    "name": "全家信美店",
    "tel": "02-27544328",
    "address": "臺北市大安區信義路三段１３４巷２號壹樓＋地下室",
    "lon": 121.539331,
    "lat": 25.033018
  },
  {
    "city": "台北市",
    "district": "大安區",
    "name": "全家義興店",
    "tel": "02-27048404",
    "address": "台北市大安區信義路４段１之１０．１之１１號",
    "lon": 121.544079,
    "lat": 25.033571
  },
  {
    "city": "台北市",
    "district": "大安區",
    "name": "全家義安店",
    "tel": "02-27015844",
    "address": "台北市大安區信義路四段８８號（部分）",
    "lon": 121.547266,
    "lat": 25.032959
  },
  {
    "city": "台北市",
    "district": "大安區",
    "name": "全家義和店",
    "tel": "02-27047661",
    "address": "台北市大安區信義路四段２６５巷８號",
    "lon": 121.554171,
    "lat": 25.033721
  },
  {
    "city": "台北市",
    "district": "大安區",
    "name": "全家北科店",
    "tel": "02-27762695",
    "address": "台北市大安區建國南路一段８１號",
    "lon": 121.536994,
    "lat": 25.043196
  },
  {
    "city": "台北市",
    "district": "大安區",
    "name": "全家建南店",
    "tel": "02-27318185",
    "address": "台北市大安區建國南路１段１５６，１５８號",
    "lon": 121.536914,
    "lat": 25.041199
  },
  {
    "city": "台北市",
    "district": "大安區",
    "name": "全家建國店",
    "tel": "02-27540801",
    "address": "台北市大安區建國南路二段１５１巷３８號１樓",
    "lon": 121.539218,
    "lat": 25.028687
  },
  {
    "city": "台北市",
    "district": "大安區",
    "name": "全家師大店",
    "tel": "02-23918196",
    "address": "台北市大安區師大路７９號",
    "lon": 121.528574,
    "lat": 25.023409
  },
  {
    "city": "台北市",
    "district": "大安區",
    "name": "全家泰順店",
    "tel": "02-23634365",
    "address": "台北市大安區泰順街２０號１樓（部分範圍）",
    "lon": 121.531355,
    "lat": 25.025327
  },
  {
    "city": "台北市",
    "district": "大安區",
    "name": "全家台科店",
    "tel": "02-27384936",
    "address": "台北市大安區基隆路４段４３號地下一樓第三餐廳",
    "lon": 121.540597,
    "lat": 25.013757
  },
  {
    "city": "台北市",
    "district": "大安區",
    "name": "全家通和店",
    "tel": "02-27331503",
    "address": "台北市大安區通安街７７號",
    "lon": 121.553276,
    "lat": 25.030322
  },
  {
    "city": "台北市",
    "district": "大安區",
    "name": "全家復豪店",
    "tel": "02-27098606",
    "address": "台北市大安區復興南路一段３６２號",
    "lon": 121.54337,
    "lat": 25.035224
  },
  {
    "city": "台北市",
    "district": "大安區",
    "name": "全家興忠店",
    "tel": "02-27419504",
    "address": "台北市大安區復興南路一段２００號",
    "lon": 121.543479,
    "lat": 25.039691
  },
  {
    "city": "台北市",
    "district": "大安區",
    "name": "全家興仁店",
    "tel": "02-87732350",
    "address": "台北市大安區復興南路一段２１７號",
    "lon": 121.543939,
    "lat": 25.039088
  },
  {
    "city": "台北市",
    "district": "大安區",
    "name": "全家懷生店",
    "tel": "02-27763718",
    "address": "台北市大安區復興南路１段７０號",
    "lon": 121.543571,
    "lat": 25.044151
  },
  {
    "city": "台北市",
    "district": "大安區",
    "name": "全家復豐店",
    "tel": "02-27555927",
    "address": "台北市大安區復興南路１段２５７號１樓",
    "lon": 121.543869,
    "lat": 25.036645
  },
  {
    "city": "台北市",
    "district": "大安區",
    "name": "全家興和店",
    "tel": "02-27845780",
    "address": "台北市大安區復興南路二段１５３號",
    "lon": 121.54371,
    "lat": 25.028416
  },
  {
    "city": "台北市",
    "district": "大安區",
    "name": "全家興南店",
    "tel": "02-27552227",
    "address": "台北市大安區復興南路二段８號及１０號",
    "lon": 121.543332,
    "lat": 25.03291
  },
  {
    "city": "台北市",
    "district": "大安區",
    "name": "全家新敦民店",
    "tel": "02-27111320",
    "address": "臺北市大安區敦化南路一段１６１巷７號",
    "lon": 121.549718,
    "lat": 25.043633
  },
  {
    "city": "台北市",
    "district": "大安區",
    "name": "全家忠孝店",
    "tel": "02-27780668",
    "address": "台北市大安區敦化南路一段１９０巷７號",
    "lon": 121.548158,
    "lat": 25.042717
  },
  {
    "city": "台北市",
    "district": "大安區",
    "name": "全家敦鼎店",
    "tel": "02-27018593",
    "address": "台北市大安區敦化南路二段７７號１樓右側空間",
    "lon": 121.549291,
    "lat": 25.030195
  },
  {
    "city": "台北市",
    "district": "大安區",
    "name": "全家新遠企店",
    "tel": "02-27323623",
    "address": "台北市大安區敦化南路二段２６１號",
    "lon": 121.549089,
    "lat": 25.02559
  },
  {
    "city": "台北市",
    "district": "大安區",
    "name": "全家新生南路店",
    "tel": "02-27035220",
    "address": "台北市大安區新生南路一段１６３號",
    "lon": 121.53291,
    "lat": 25.034333
  },
  {
    "city": "台北市",
    "district": "大安區",
    "name": "全家新北科店",
    "tel": "02-27712202",
    "address": "台北市大安區新生南路１段１號光華樓１樓部分空間",
    "lon": 121.533139,
    "lat": 25.04423
  },
  {
    "city": "台北市",
    "district": "大安區",
    "name": "全家大森店",
    "tel": "02-27005349",
    "address": "台北市大安區新生南路一段１６５巷３５號",
    "lon": 121.535966,
    "lat": 25.034233
  },
  {
    "city": "台北市",
    "district": "大安區",
    "name": "全家台新店",
    "tel": "02-23626210",
    "address": "台北市大安區新生南路三段８４之８號",
    "lon": 121.533496,
    "lat": 25.018821
  },
  {
    "city": "台北市",
    "district": "大安區",
    "name": "全家瑞和店",
    "tel": "02-27049888",
    "address": "台北市大安區瑞安街１３５巷２８號１樓",
    "lon": 121.541701,
    "lat": 25.026481
  },
  {
    "city": "台北市",
    "district": "大安區",
    "name": "全家潮州店",
    "tel": "02-23917239",
    "address": "台北市大安區潮州街８０號１樓",
    "lon": 121.524341,
    "lat": 25.029094
  },
  {
    "city": "台北市",
    "district": "大安區",
    "name": "全家濟南二店",
    "tel": "02-87734589",
    "address": "台北市大安區濟南路３段７號",
    "lon": 121.533506,
    "lat": 25.040241
  },
  {
    "city": "台北市",
    "district": "大安區",
    "name": "全家臨江店",
    "tel": "02-27322438",
    "address": "台北市大安區臨江街２巷２號",
    "lon": 121.556974,
    "lat": 25.02933
  },
  {
    "city": "台北市",
    "district": "大安區",
    "name": "全家古亭店",
    "tel": "02-23673372",
    "address": "台北市大安區羅斯福路２段１０３號",
    "lon": 121.524458,
    "lat": 25.024673
  },
  {
    "city": "台北市",
    "district": "大安區",
    "name": "全家羅中店",
    "tel": "02-23924175",
    "address": "台北市大安區羅斯福路二段１７號１Ｆ",
    "lon": 121.521912,
    "lat": 25.028126
  },
  {
    "city": "台北市",
    "district": "大安區",
    "name": "全家羅騰店",
    "tel": "02-23651801",
    "address": "台北市大安區羅斯福路三段２６９巷２號",
    "lon": 121.530781,
    "lat": 25.019054
  },
  {
    "city": "台北市",
    "district": "大安區",
    "name": "全家台福店",
    "tel": "02-83691892",
    "address": "台北市大安區羅斯福路四段１號腳踏車部部份空間",
    "lon": 121.533648,
    "lat": 25.017049
  },
  {
    "city": "台北市",
    "district": "大安區",
    "name": "全家台大楓林店",
    "tel": "02-23675017",
    "address": "台北市大安區羅斯福路四段１號（女九餐廳）",
    "lon": 121.533648,
    "lat": 25.017049
  },
  {
    "city": "台北市",
    "district": "大安區",
    "name": "全家台一宿舍店",
    "tel": "02-23672617",
    "address": "台北市大安區羅斯福路４段１號台大大一女北側餐廳",
    "lon": 121.533648,
    "lat": 25.017049
  },
  {
    "city": "台北市",
    "district": "大安區",
    "name": "全家台大二活店",
    "tel": "02-23661941",
    "address": "台北市大安區羅斯福路四段８５號（第二學生活動中心）",
    "lon": 121.536463,
    "lat": 25.012905
  },
  {
    "city": "台北市",
    "district": "南港區",
    "name": "全家德民店",
    "tel": "02-26536783",
    "address": "台北市南港區八德路四段７６８巷９號１樓",
    "lon": 121.580614,
    "lat": 25.049829
  },
  {
    "city": "台北市",
    "district": "南港區",
    "name": "全家工業三店",
    "tel": "02-27833949",
    "address": "台北市南港區三重路６６之２號１樓",
    "lon": 121.614762,
    "lat": 25.057471
  },
  {
    "city": "台北市",
    "district": "南港區",
    "name": "全家工業一店",
    "tel": "02-26550313",
    "address": "台北市南港區三重路１９－７號內之一部份",
    "lon": 121.613901,
    "lat": 25.057859
  },
  {
    "city": "台北市",
    "district": "南港區",
    "name": "全家宏展店",
    "tel": "02-26539324",
    "address": "台北市南港區三重路６６號１樓",
    "lon": 121.614382,
    "lat": 25.057265
  },
  {
    "city": "台北市",
    "district": "南港區",
    "name": "全家新成鑫店",
    "tel": "02-27853529",
    "address": "台北市南港區玉成街１７６巷１號",
    "lon": 121.584297,
    "lat": 25.044405
  },
  {
    "city": "台北市",
    "district": "南港區",
    "name": "全家港運店",
    "tel": "02-27857667",
    "address": "台北市南港區玉成街５２巷２弄７號一樓",
    "lon": 121.581397,
    "lat": 25.047758
  },
  {
    "city": "台北市",
    "district": "南港區",
    "name": "全家小彎公宅店",
    "tel": "02-27836507",
    "address": "台北市南港區向陽路２５６號１樓",
    "lon": 121.593147,
    "lat": 25.057701
  },
  {
    "city": "台北市",
    "district": "南港區",
    "name": "全家南港生技店",
    "tel": "02-26534024",
    "address": "台北市南港區忠孝東路七段５０８之７號１樓",
    "lon": 121.609965,
    "lat": 25.052193
  },
  {
    "city": "台北市",
    "district": "南港區",
    "name": "全家港忠店",
    "tel": "02-26511449",
    "address": "台北市南港區忠孝東路七段６３５號１樓",
    "lon": 121.615941,
    "lat": 25.053317
  },
  {
    "city": "台北市",
    "district": "南港區",
    "name": "全家南港車站店",
    "tel": "02-27837703",
    "address": "台北市南港區忠孝東路七段３７１號Ｂ２",
    "lon": 121.607455,
    "lat": 25.05259
  },
  {
    "city": "台北市",
    "district": "南港區",
    "name": "全家新昆陽店",
    "tel": "02-27883495",
    "address": "台北市南港區昆陽街１４５號",
    "lon": 121.594181,
    "lat": 25.050117
  },
  {
    "city": "台北市",
    "district": "南港區",
    "name": "全家南港公宅店",
    "tel": "02-26546142",
    "address": "台北市南港區南港路二段３８巷６之２號",
    "lon": 121.60478,
    "lat": 25.054765
  },
  {
    "city": "台北市",
    "district": "南港區",
    "name": "全家港成店",
    "tel": "02-26548729",
    "address": "台北市南港區南港路三段２號",
    "lon": 121.593062,
    "lat": 25.054537
  },
  {
    "city": "台北市",
    "district": "南港區",
    "name": "全家中研店",
    "tel": "02-27839381",
    "address": "台北市南港區研究院路二段１２巷５５號１樓",
    "lon": 121.613847,
    "lat": 25.04766
  },
  {
    "city": "台北市",
    "district": "南港區",
    "name": "全家研究院店",
    "tel": "02-26515140",
    "address": "台北市南港區研究院路２段７０巷１號",
    "lon": 121.615015,
    "lat": 25.045806
  },
  {
    "city": "台北市",
    "district": "南港區",
    "name": "全家重陽店",
    "tel": "02-27893918",
    "address": "台北市南港區重陽路１８３、１８５號１樓",
    "lon": 121.598746,
    "lat": 25.056667
  },
  {
    "city": "台北市",
    "district": "南港區",
    "name": "全家向陽店",
    "tel": "02-27887390",
    "address": "台北市南港區東新里重陽路１６號一樓",
    "lon": 121.595898,
    "lat": 25.055118
  },
  {
    "city": "台北市",
    "district": "南港區",
    "name": "全家富康店",
    "tel": "02-27821423",
    "address": "台北市南港區富康街８６號１Ｆ",
    "lon": 121.616919,
    "lat": 25.051969
  },
  {
    "city": "台北市",
    "district": "南港區",
    "name": "全家工業二店",
    "tel": "02-26558763",
    "address": "台北市南港區園區街３號２樓之７",
    "lon": 121.612182,
    "lat": 25.058954
  },
  {
    "city": "台北市",
    "district": "南港區",
    "name": "全家台肥大樓店",
    "tel": "02-26518043",
    "address": "台北市南港區經貿一路１７０號２樓之６",
    "lon": 121.618407,
    "lat": 25.057825
  },
  {
    "city": "台北市",
    "district": "南港區",
    "name": "全家京石店",
    "tel": "02-27831176",
    "address": "台北市南港區經貿二路２３５巷３８號１樓",
    "lon": 121.615084,
    "lat": 25.061434
  },
  {
    "city": "台北市",
    "district": "南港區",
    "name": "全家大聯大店",
    "tel": "02-26510364",
    "address": "台北市南港區經貿二路１９１號一樓",
    "lon": 121.616129,
    "lat": 25.060685
  },
  {
    "city": "台北市",
    "district": "南港區",
    "name": "全家港福店",
    "tel": "02-26543532",
    "address": "台北市南港區福德街３７３巷６３號１樓",
    "lon": 121.592009,
    "lat": 25.03963
  },
  {
    "city": "台北市",
    "district": "南港區",
    "name": "全家中視店",
    "tel": "02-27864176",
    "address": "台北市南港區興南街３９號１樓",
    "lon": 121.601501,
    "lat": 25.0562
  },
  {
    "city": "台北市",
    "district": "南港區",
    "name": "全家興華店",
    "tel": "02-27834076",
    "address": "台北市南港區興華路８６號",
    "lon": 121.605676,
    "lat": 25.055925
  },
  {
    "city": "台北市",
    "district": "南港區",
    "name": "全家國興店",
    "tel": "02-27832665",
    "address": "台北市南港區舊莊街一段３巷３弄２號",
    "lon": 121.618948,
    "lat": 25.043166
  },
  {
    "city": "台北市",
    "district": "南港區",
    "name": "全家新莊研店",
    "tel": "02-27853487",
    "address": "台北市南港區舊莊街一段１６９號",
    "lon": 121.621235,
    "lat": 25.039469
  },
  {
    "city": "台北市",
    "district": "南港區",
    "name": "全家胡適店",
    "tel": "02-27888455",
    "address": "台北市南港區舊莊街一段３巷１６號",
    "lon": 121.618172,
    "lat": 25.042341
  },
  {
    "city": "台北市",
    "district": "南港區",
    "name": "全家舊莊店",
    "tel": "02-26548106",
    "address": "台北市南港區舊莊街一段８８號一樓",
    "lon": 121.619022,
    "lat": 25.04072
  },
  {
    "city": "台北市",
    "district": "北投區",
    "name": "全家三合店",
    "tel": "02-28946764",
    "address": "台北市北投區三合街一段１１６號１樓",
    "lon": 121.504239,
    "lat": 25.126936
  },
  {
    "city": "台北市",
    "district": "北投區",
    "name": "全家崇合店",
    "tel": "02-28972076",
    "address": "台北市北投區清江里三合街二段４８７號１樓",
    "lon": 121.501171,
    "lat": 25.126239
  },
  {
    "city": "台北市",
    "district": "北投區",
    "name": "全家大同店",
    "tel": "02-28919974",
    "address": "台北市北投區大業路４５２巷３１號",
    "lon": 121.497258,
    "lat": 25.132132
  },
  {
    "city": "台北市",
    "district": "北投區",
    "name": "全家大業店",
    "tel": "02-28964457",
    "address": "台北市北投區大興街２２號",
    "lon": 121.498376,
    "lat": 25.129864
  },
  {
    "city": "台北市",
    "district": "北投區",
    "name": "全家大心店",
    "tel": "02-",
    "address": "台北市北投區大興街８０之１號",
    "lon": 121.501759,
    "lat": 25.130655
  },
  {
    "city": "台北市",
    "district": "北投區",
    "name": "全家甲桂林店",
    "tel": "02-28725427",
    "address": "台北市北投區中山北路七段２１９巷３弄１７１號壹樓",
    "lon": 121.530717,
    "lat": 25.128551
  },
  {
    "city": "台北市",
    "district": "北投區",
    "name": "全家文化店",
    "tel": "02-28976316",
    "address": "台北市北投區中央北路二段９７號１樓",
    "lon": 121.495075,
    "lat": 25.13678
  },
  {
    "city": "台北市",
    "district": "北投區",
    "name": "全家新復興崗店",
    "tel": "02-28910617",
    "address": "台北市北投區中央北路三段４號１樓",
    "lon": 121.486556,
    "lat": 25.138421
  },
  {
    "city": "台北市",
    "district": "北投區",
    "name": "全家義忠店",
    "tel": "02-28945003",
    "address": "台北市北投區中央北路四段２９８號",
    "lon": 121.472935,
    "lat": 25.131246
  },
  {
    "city": "台北市",
    "district": "北投區",
    "name": "全家中央南路店",
    "tel": "02-28911712",
    "address": "台北市北投區中央南路２段１５號１樓",
    "lon": 121.500506,
    "lat": 25.125814
  },
  {
    "city": "台北市",
    "district": "北投區",
    "name": "全家新和店",
    "tel": "02-28912821",
    "address": "台北市北投區中和街４８９號",
    "lon": 121.495048,
    "lat": 25.145102
  },
  {
    "city": "台北市",
    "district": "北投區",
    "name": "全家鑫復中店",
    "tel": "02-25239913",
    "address": "台北市北投區中和街３２２號",
    "lon": 121.499661,
    "lat": 25.141115
  },
  {
    "city": "台北市",
    "district": "北投區",
    "name": "全家中永店",
    "tel": "02-28949813",
    "address": "台北市北投區開明里中和街２５２號一樓",
    "lon": 121.500871,
    "lat": 25.139937
  },
  {
    "city": "台北市",
    "district": "北投區",
    "name": "全家溫泉店",
    "tel": "02-28916112",
    "address": "台北市北投區公館路６１－１號１樓",
    "lon": 121.503755,
    "lat": 25.132687
  },
  {
    "city": "台北市",
    "district": "北投區",
    "name": "全家永興店",
    "tel": "02-28947414",
    "address": "台北市北投區中庸里永興路一段１號、３號一樓",
    "lon": 121.499326,
    "lat": 25.138854
  },
  {
    "city": "台北市",
    "district": "北投區",
    "name": "全家榮光店",
    "tel": "02-28217765",
    "address": "台北市北投區石牌路一段１６６巷９３號",
    "lon": 121.515116,
    "lat": 25.112431
  },
  {
    "city": "台北市",
    "district": "北投區",
    "name": "全家華勝店",
    "tel": "02-28217248",
    "address": "台北市北投區石牌路２段８８之１號１樓",
    "lon": 121.516478,
    "lat": 25.117105
  },
  {
    "city": "台北市",
    "district": "北投區",
    "name": "全家東榮店",
    "tel": "02-28742808",
    "address": "台北市北投區石牌路二段２０１號（長青樓大樓）",
    "lon": 121.519223,
    "lat": 25.119211
  },
  {
    "city": "台北市",
    "district": "北投區",
    "name": "全家關渡慈濟店",
    "tel": "02-23820683",
    "address": "台北市北投區立德路８號（二樓部分）",
    "lon": 121.471979,
    "lat": 25.124257
  },
  {
    "city": "台北市",
    "district": "北投區",
    "name": "全家光明店",
    "tel": "02-28966631",
    "address": "台北市北投區光明路２３號，２５號",
    "lon": 121.49916,
    "lat": 25.132661
  },
  {
    "city": "台北市",
    "district": "北投區",
    "name": "全家北投店",
    "tel": "02-28941595",
    "address": "台北市北投區光明路２１８之１號",
    "lon": 121.504149,
    "lat": 25.136229
  },
  {
    "city": "台北市",
    "district": "北投區",
    "name": "全家新自強店",
    "tel": "02-28212852",
    "address": "台北市北投區自強街１１６號１樓",
    "lon": 121.515528,
    "lat": 25.110778
  },
  {
    "city": "台北市",
    "district": "北投區",
    "name": "全家東陽店",
    "tel": "02-28212319",
    "address": "台北市北投區西安街一段２８３號",
    "lon": 121.516716,
    "lat": 25.112047
  },
  {
    "city": "台北市",
    "district": "北投區",
    "name": "全家華儷店",
    "tel": "02-29266847",
    "address": "台北市北投區西安街二段２０３號１樓",
    "lon": 121.510091,
    "lat": 25.11974
  },
  {
    "city": "台北市",
    "district": "北投區",
    "name": "全家唭哩店",
    "tel": "02-28219568",
    "address": "臺北市北投區西安街二段２８３號",
    "lon": 121.506376,
    "lat": 25.12049
  },
  {
    "city": "台北市",
    "district": "北投區",
    "name": "全家立賢店",
    "tel": "02-28202721",
    "address": "台北市北投區立賢里承德路七段２９０號",
    "lon": 121.505281,
    "lat": 25.11648
  },
  {
    "city": "台北市",
    "district": "北投區",
    "name": "全家明德店",
    "tel": "02-28239507",
    "address": "台北市北投區石牌里明德路９３號",
    "lon": 121.518863,
    "lat": 25.109075
  },
  {
    "city": "台北市",
    "district": "北投區",
    "name": "全家北護店",
    "tel": "02-28212508",
    "address": "台北市北投區明德路３６５號教學研究大樓一樓",
    "lon": 121.521426,
    "lat": 25.117609
  },
  {
    "city": "台北市",
    "district": "北投區",
    "name": "全家東華店",
    "tel": "02-28232256",
    "address": "台北市北投區東華街二段８８號",
    "lon": 121.513642,
    "lat": 25.117758
  },
  {
    "city": "台北市",
    "district": "北投區",
    "name": "全家新知行店",
    "tel": "02-28586738",
    "address": "臺北市北投區知行路２３７號",
    "lon": 121.466982,
    "lat": 25.120354
  },
  {
    "city": "台北市",
    "district": "北投區",
    "name": "全家行勝店",
    "tel": "02-28586707",
    "address": "台北市北投區知行路２９８號１樓",
    "lon": 121.467455,
    "lat": 25.122007
  },
  {
    "city": "台北市",
    "district": "北投區",
    "name": "全家振華店",
    "tel": "02-28232410",
    "address": "台北市北投區振華街２號",
    "lon": 121.519941,
    "lat": 25.11565
  },
  {
    "city": "台北市",
    "district": "北投區",
    "name": "全家清江店",
    "tel": "02-28970433",
    "address": "台北市北投區中央里清江路１號，中央南路一段６３號",
    "lon": 121.50137,
    "lat": 25.131811
  },
  {
    "city": "台北市",
    "district": "北投區",
    "name": "全家尊賢店",
    "tel": "02-28271417",
    "address": "台北市北投區尊賢街２６０號１Ｆ",
    "lon": 121.507184,
    "lat": 25.117353
  },
  {
    "city": "台北市",
    "district": "北投區",
    "name": "全家新實店",
    "tel": "02-28236547",
    "address": "臺北市北投區實踐街５１號１樓",
    "lon": 121.509529,
    "lat": 25.115327
  },
  {
    "city": "台北市",
    "district": "北投區",
    "name": "全家富貴店",
    "tel": "02-28237199",
    "address": "台北市北投區榮華三路３之１號１樓",
    "lon": 121.523936,
    "lat": 25.113667
  },
  {
    "city": "台北市",
    "district": "北投區",
    "name": "全家榮岩店",
    "tel": "02-28978095",
    "address": "台北市北投區磺港路２６１號１樓",
    "lon": 121.503252,
    "lat": 25.123677
  },
  {
    "city": "台北市",
    "district": "內湖區",
    "name": "全家麗山店",
    "tel": "02-26279495",
    "address": "台北市內湖區內湖路一段７３７巷４９號",
    "lon": 121.579098,
    "lat": 25.080373
  },
  {
    "city": "台北市",
    "district": "內湖區",
    "name": "全家湖安店",
    "tel": "02-26591427",
    "address": "台北市內湖區內湖路一段２８５巷１９號１樓",
    "lon": 121.566979,
    "lat": 25.082946
  },
  {
    "city": "台北市",
    "district": "內湖區",
    "name": "全家碧湖店",
    "tel": "02-26277149",
    "address": "台北市內湖區內湖路一段５９３號一樓及地下室",
    "lon": 121.573314,
    "lat": 25.080997
  },
  {
    "city": "台北市",
    "district": "內湖區",
    "name": "全家陽湖店",
    "tel": "02-26277102",
    "address": "台北市內湖區內湖路一段９１巷４號１樓",
    "lon": 121.561527,
    "lat": 25.084823
  },
  {
    "city": "台北市",
    "district": "內湖區",
    "name": "全家湖濱店",
    "tel": "02-26593051",
    "address": "臺北市內湖區內湖路二段１０３巷１０４號",
    "lon": 121.580862,
    "lat": 25.083851
  },
  {
    "city": "台北市",
    "district": "內湖區",
    "name": "全家文湖店",
    "tel": "02-27973433",
    "address": "台北市內湖區文湖街５９號",
    "lon": 121.562634,
    "lat": 25.086887
  },
  {
    "city": "台北市",
    "district": "內湖區",
    "name": "全家湖茂店",
    "tel": "02-27978682",
    "address": "台北市內湖區文湖街２１巷７號１樓",
    "lon": 121.560153,
    "lat": 25.087114
  },
  {
    "city": "台北市",
    "district": "內湖區",
    "name": "全家德陽店",
    "tel": "02-27987160",
    "address": "臺北市內湖區文德路２２巷２５號",
    "lon": 121.57995,
    "lat": 25.076852
  },
  {
    "city": "台北市",
    "district": "內湖區",
    "name": "全家紫陽店",
    "tel": "02-87519703",
    "address": "台北市內湖區文德路２１２號",
    "lon": 121.584302,
    "lat": 25.078309
  },
  {
    "city": "台北市",
    "district": "內湖區",
    "name": "全家瑞陽店",
    "tel": "02-26597471",
    "address": "台北市內湖區文德路９０巷４９號",
    "lon": 121.582696,
    "lat": 25.077207
  },
  {
    "city": "台北市",
    "district": "內湖區",
    "name": "全家民善店",
    "tel": "02-87922468",
    "address": "台北市內湖區民善街１號１樓",
    "lon": 121.577102,
    "lat": 25.057548
  },
  {
    "city": "台北市",
    "district": "內湖區",
    "name": "全家三民店",
    "tel": "02-27942827",
    "address": "台北市內湖區民權東路六段９０巷１號",
    "lon": 121.586051,
    "lat": 25.068786
  },
  {
    "city": "台北市",
    "district": "內湖區",
    "name": "全家內華店",
    "tel": "02-27911354",
    "address": "台北市內湖區民權東路六段１６２號",
    "lon": 121.591812,
    "lat": 25.068665
  },
  {
    "city": "台北市",
    "district": "內湖區",
    "name": "全家湖洲店",
    "tel": "02-26308735",
    "address": "台北市內湖區民權東路六段２９６巷７０號１樓",
    "lon": 121.608901,
    "lat": 25.070215
  },
  {
    "city": "台北市",
    "district": "內湖區",
    "name": "全家金莊店",
    "tel": "02-27941829",
    "address": "台北市內湖區石潭路６７號１樓",
    "lon": 121.587424,
    "lat": 25.062823
  },
  {
    "city": "台北市",
    "district": "內湖區",
    "name": "全家東安店",
    "tel": "02-26345521",
    "address": "台北市內湖區安康路４８０號",
    "lon": 121.615747,
    "lat": 25.067835
  },
  {
    "city": "台北市",
    "district": "內湖區",
    "name": "全家新內湖店",
    "tel": "02-27948239",
    "address": "臺北市內湖區成功路２段４２０號",
    "lon": 121.589725,
    "lat": 25.071264
  },
  {
    "city": "台北市",
    "district": "內湖區",
    "name": "全家湖興店",
    "tel": "02-87926469",
    "address": "台北市內湖區成功路二段３２０巷２８號１樓",
    "lon": 121.589281,
    "lat": 25.067552
  },
  {
    "city": "台北市",
    "district": "內湖區",
    "name": "全家興三總店",
    "tel": "02-87917684",
    "address": "台北市內湖區成功路二段３２５號Ｂ１Ｆ",
    "lon": 121.591982,
    "lat": 25.0718
  },
  {
    "city": "台北市",
    "district": "內湖區",
    "name": "全家達成店",
    "tel": "02-87929553",
    "address": "台北市內湖區成功路三段１７４巷１８號一樓",
    "lon": 121.590487,
    "lat": 25.081164
  },
  {
    "city": "台北市",
    "district": "內湖區",
    "name": "全家湖捷店",
    "tel": "02-27946716",
    "address": "台北市內湖區成功路四段１７８號１樓",
    "lon": 121.593582,
    "lat": 25.083356
  },
  {
    "city": "台北市",
    "district": "內湖區",
    "name": "全家德湖店",
    "tel": "02-87923344",
    "address": "台北市內湖區成功路四段６２號１樓及Ｂ１",
    "lon": 121.592489,
    "lat": 25.08276
  },
  {
    "city": "台北市",
    "district": "內湖區",
    "name": "全家行善公宅店",
    "tel": "02-87926725",
    "address": "台北市內湖區行善路２６２號１樓",
    "lon": 121.581783,
    "lat": 25.060381
  },
  {
    "city": "台北市",
    "district": "內湖區",
    "name": "全家行善店",
    "tel": "02-27967192",
    "address": "臺北市內湖區行善路２８９號",
    "lon": 121.58419,
    "lat": 25.061544
  },
  {
    "city": "台北市",
    "district": "內湖區",
    "name": "全家新東湖店",
    "tel": "02-26317679",
    "address": "臺北市內湖區東湖路４３巷４號",
    "lon": 121.61415,
    "lat": 25.069196
  },
  {
    "city": "台北市",
    "district": "內湖區",
    "name": "全家明美店",
    "tel": "02-27941977",
    "address": "台北市內湖區金莊路８６號１樓",
    "lon": 121.58718,
    "lat": 25.06351
  },
  {
    "city": "台北市",
    "district": "內湖區",
    "name": "全家金瑞店",
    "tel": "02-27934276",
    "address": "臺北市內湖區金龍路２２４號",
    "lon": 121.586693,
    "lat": 25.088283
  },
  {
    "city": "台北市",
    "district": "內湖區",
    "name": "全家台塑店",
    "tel": "02-27940810",
    "address": "台北市內湖區南京東路六段３７０號",
    "lon": 121.586806,
    "lat": 25.059301
  },
  {
    "city": "台北市",
    "district": "內湖區",
    "name": "全家星湖店",
    "tel": "02-27906271",
    "address": "台北市內湖區星雲街１６１巷１號",
    "lon": 121.596255,
    "lat": 25.080855
  },
  {
    "city": "台北市",
    "district": "內湖區",
    "name": "全家內科店",
    "tel": "02-87511523",
    "address": "台北市內湖區洲子街６１號１樓（部份）",
    "lon": 121.572918,
    "lat": 25.079526
  },
  {
    "city": "台北市",
    "district": "內湖區",
    "name": "全家紫新店",
    "tel": "02-27940091",
    "address": "台北市內湖區康寧路ㄧ段３７號ㄧ樓",
    "lon": 121.591658897346,
    "lat": 25.0804974860244
  },
  {
    "city": "台北市",
    "district": "內湖區",
    "name": "全家康雲店",
    "tel": "02-27940805",
    "address": "台北市內湖區康寧路一段１１６號及地下室",
    "lon": 121.593357,
    "lat": 25.079502
  },
  {
    "city": "台北市",
    "district": "內湖區",
    "name": "全家護校店",
    "tel": "02-26342271",
    "address": "台北市內湖區康寧路三段７５巷１３７號",
    "lon": 121.61003,
    "lat": 25.075208
  },
  {
    "city": "台北市",
    "district": "內湖區",
    "name": "全家東茂店",
    "tel": "02-26317208",
    "address": "台北市內湖區康寧路三段１８９巷１２號１樓",
    "lon": 121.612455,
    "lat": 25.070208
  },
  {
    "city": "台北市",
    "district": "內湖區",
    "name": "全家湖東店",
    "tel": "02-26316023",
    "address": "台北市內湖區康樂街１１０巷１５號",
    "lon": 121.618343,
    "lat": 25.07081
  },
  {
    "city": "台北市",
    "district": "內湖區",
    "name": "全家康福店",
    "tel": "02-26339860",
    "address": "台北市內湖區康樂街８７號",
    "lon": 121.618828,
    "lat": 25.069632
  },
  {
    "city": "台北市",
    "district": "內湖區",
    "name": "全家新瑞店",
    "tel": "02-26592842",
    "address": "台北市內湖區堤頂大道２段４０７巷２６號一樓",
    "lon": 121.563774,
    "lat": 25.08115
  },
  {
    "city": "台北市",
    "district": "內湖區",
    "name": "全家精英店",
    "tel": "02-26579148",
    "address": "台北市內湖區堤頂大道二段２４１號壹樓",
    "lon": 121.566762,
    "lat": 25.07824
  },
  {
    "city": "台北市",
    "district": "內湖區",
    "name": "全家港華店",
    "tel": "02-87975015",
    "address": "台北市內湖區港華街４０號１樓",
    "lon": 121.575007,
    "lat": 25.082891
  },
  {
    "city": "台北市",
    "district": "內湖區",
    "name": "全家陽盛店",
    "tel": "02-26579844",
    "address": "台北市內湖區陽光街３５３號１樓",
    "lon": 121.577346,
    "lat": 25.073032
  },
  {
    "city": "台北市",
    "district": "內湖區",
    "name": "全家行美店",
    "tel": "02-27945755",
    "address": "台北市內湖區新明路３７６號",
    "lon": 121.580532,
    "lat": 25.054857
  },
  {
    "city": "台北市",
    "district": "內湖區",
    "name": "全家新盛店",
    "tel": "02-27943751",
    "address": "台北市內湖區新明路１６０號壹樓",
    "lon": 121.585828,
    "lat": 25.057641
  },
  {
    "city": "台北市",
    "district": "內湖區",
    "name": "全家新湖店",
    "tel": "02-27937065",
    "address": "台北市內湖區新湖二路２５０巷８號１樓",
    "lon": 121.582544,
    "lat": 25.064886
  },
  {
    "city": "台北市",
    "district": "內湖區",
    "name": "全家瑞光店",
    "tel": "02-87514993",
    "address": "台北市內湖區瑞光路５１０號１樓",
    "lon": 121.567655,
    "lat": 25.079464
  },
  {
    "city": "台北市",
    "district": "內湖區",
    "name": "全家瑞湖店",
    "tel": "02-87524016",
    "address": "台北市內湖區港墘里瑞光路５１３巷３９號１樓",
    "lon": 121.570252,
    "lat": 25.080095
  },
  {
    "city": "台北市",
    "district": "內湖區",
    "name": "全家瑞興店",
    "tel": "02-26591468",
    "address": "台北市內湖區瑞光路３０３號",
    "lon": 121.575867,
    "lat": 25.075921
  },
  {
    "city": "台北市",
    "district": "內湖區",
    "name": "全家瑞豐店",
    "tel": "02-87514934",
    "address": "台北市內湖區瑞光路２２０號",
    "lon": 121.576017,
    "lat": 25.075487
  },
  {
    "city": "台北市",
    "district": "內湖區",
    "name": "全家瑞盛店",
    "tel": "02-87926581",
    "address": "台北市內湖區瑞光路６６巷４０號",
    "lon": 121.580852,
    "lat": 25.069626
  },
  {
    "city": "台北市",
    "district": "內湖區",
    "name": "全家瑞亞店",
    "tel": "02-26573023",
    "address": "台北市內湖區瑞光路３０２號１樓",
    "lon": 121.574148,
    "lat": 25.07654
  },
  {
    "city": "台北市",
    "district": "內湖區",
    "name": "全家瑞智店",
    "tel": "02-87518611",
    "address": "台北市內湖區瑞光路４３３號１樓",
    "lon": 121.571169,
    "lat": 25.078312
  },
  {
    "city": "台北市",
    "district": "內湖區",
    "name": "全家陽鑫店",
    "tel": "02-26593732",
    "address": "台北市內湖區瑞湖街８０號１樓Ｒ３、Ｒ４",
    "lon": 121.575962,
    "lat": 25.07258
  },
  {
    "city": "台北市",
    "district": "內湖區",
    "name": "全家新環山店",
    "tel": "02-28839401",
    "address": "台北市內湖區環山路一段７號１樓",
    "lon": 121.565702,
    "lat": 25.082928
  },
  {
    "city": "台北市",
    "district": "內湖區",
    "name": "全家新德明店",
    "tel": "02-27996853",
    "address": "臺北市內湖區環山路一段１１０號",
    "lon": 121.567981,
    "lat": 25.086553
  },
  {
    "city": "台北市",
    "district": "內湖區",
    "name": "全家堤頂店",
    "tel": "02-87989969",
    "address": "台北市內湖區舊宗路二段２０７號１樓（部份）",
    "lon": 121.573978,
    "lat": 25.072758
  },
  {
    "city": "台北市",
    "district": "內湖區",
    "name": "全家湖山店",
    "tel": "02-26572616",
    "address": "台北市內湖區麗山街３４８巷１０弄２號",
    "lon": 121.573544,
    "lat": 25.082171
  },
  {
    "city": "台北市",
    "district": "士林區",
    "name": "全家芝玉店",
    "tel": "02-28343943",
    "address": "台北市士林區士東路２６６巷５弄１６號",
    "lon": 121.537537,
    "lat": 25.112312
  },
  {
    "city": "台北市",
    "district": "士林區",
    "name": "全家新士誠店",
    "tel": "02-28314357",
    "address": "台北市士林區士東路８６號壹樓",
    "lon": 121.52881,
    "lat": 25.112016
  },
  {
    "city": "台北市",
    "district": "士林區",
    "name": "全家大東店",
    "tel": "02-28834125",
    "address": "台北市士林區大東路６３號１樓",
    "lon": 121.525481,
    "lat": 25.090099
  },
  {
    "city": "台北市",
    "district": "士林區",
    "name": "全家新天地店",
    "tel": "02-28811327",
    "address": "台北市士林區大南路３４６號１樓",
    "lon": 121.517584,
    "lat": 25.089102
  },
  {
    "city": "台北市",
    "district": "士林區",
    "name": "全家大南店",
    "tel": "02-28833976",
    "address": "台北市士林區大南路５２號",
    "lon": 121.52486,
    "lat": 25.089397
  },
  {
    "city": "台北市",
    "district": "士林區",
    "name": "全家華港店",
    "tel": "02-28810722",
    "address": "台北市士林區大南路２３１號",
    "lon": 121.520864,
    "lat": 25.088416
  },
  {
    "city": "台北市",
    "district": "士林區",
    "name": "全家金天玉店",
    "tel": "02-28724513",
    "address": "台北市士林區中山北路七段８１巷８號１樓",
    "lon": 121.530611,
    "lat": 25.121942
  },
  {
    "city": "台北市",
    "district": "士林區",
    "name": "全家士林店",
    "tel": "02-28348066",
    "address": "台北市士林區中山北路５段６９７號",
    "lon": 121.527119,
    "lat": 25.097656
  },
  {
    "city": "台北市",
    "district": "士林區",
    "name": "全家榮富店",
    "tel": "02-28768631",
    "address": "台北市士林區中山北路六段７２６號北側",
    "lon": 121.527949,
    "lat": 25.115084
  },
  {
    "city": "台北市",
    "district": "士林區",
    "name": "全家天強店",
    "tel": "02-28317990",
    "address": "台北市士林區中山北路六段２３８號壹樓",
    "lon": 121.525443,
    "lat": 25.108973
  },
  {
    "city": "台北市",
    "district": "士林區",
    "name": "全家仰德大樓店",
    "tel": "02-28383850",
    "address": "台北市士林區中山北路六段８８號地下室",
    "lon": 121.524985,
    "lat": 25.104987
  },
  {
    "city": "台北市",
    "district": "士林區",
    "name": "全家士商店",
    "tel": "02-28838435",
    "address": "台北市士林區中正路５０３號",
    "lon": 121.518068,
    "lat": 25.091758
  },
  {
    "city": "台北市",
    "district": "士林區",
    "name": "全家福林店",
    "tel": "02-88611682",
    "address": "台北市士林區福林里中正路２３３號，２３３之１號",
    "lon": 121.525986,
    "lat": 25.095188
  },
  {
    "city": "台北市",
    "district": "士林區",
    "name": "全家新磺溪店",
    "tel": "02-28767673",
    "address": "台北市士林區天母西路４０－２號１樓",
    "lon": 121.525882,
    "lat": 25.118386
  },
  {
    "city": "台北市",
    "district": "士林區",
    "name": "全家天山店",
    "tel": "02-28769215",
    "address": "台北市士林區天母東路６９巷１１之９號１樓",
    "lon": 121.533408,
    "lat": 25.119814
  },
  {
    "city": "台北市",
    "district": "士林區",
    "name": "全家天成店",
    "tel": "02-28747141",
    "address": "台北市士林區天福里天母東路３６號之５，之６",
    "lon": 121.532665,
    "lat": 25.117927
  },
  {
    "city": "台北市",
    "district": "士林區",
    "name": "全家新光醫院店",
    "tel": "02-28313525",
    "address": "台北市士林區文昌路９５號地下三層",
    "lon": 121.520296,
    "lat": 25.096316
  },
  {
    "city": "台北市",
    "district": "士林區",
    "name": "全家文鑫店",
    "tel": "02-28816801",
    "address": "台北市士林區文林路２０５號１樓及地下室",
    "lon": 121.526974,
    "lat": 25.090111
  },
  {
    "city": "台北市",
    "district": "士林區",
    "name": "全家大北店",
    "tel": "02-28819255",
    "address": "臺北市士林區文林路３２０號",
    "lon": 121.526144,
    "lat": 25.092366
  },
  {
    "city": "台北市",
    "district": "士林區",
    "name": "全家中影店",
    "tel": "02-28839581",
    "address": "台北市士林區至善路二段３４號",
    "lon": 121.544754,
    "lat": 25.097101
  },
  {
    "city": "台北市",
    "district": "士林區",
    "name": "全家至善店",
    "tel": "02-28414153",
    "address": "台北市士林區臨溪里至善路二段２６８號一樓",
    "lon": 121.551115,
    "lat": 25.100569
  },
  {
    "city": "台北市",
    "district": "士林區",
    "name": "全家和豐店",
    "tel": "02-28813084",
    "address": "台北市士林區福華里和豐街２號一樓",
    "lon": 121.519358,
    "lat": 25.082825
  },
  {
    "city": "台北市",
    "district": "士林區",
    "name": "全家社子島店",
    "tel": "02-28105039",
    "address": "台北市士林區延平北路八段１０５號１樓",
    "lon": 121.483417,
    "lat": 25.105874
  },
  {
    "city": "台北市",
    "district": "士林區",
    "name": "全家新延店",
    "tel": "02-28113485",
    "address": "台北市士林區延平北路五段２１７號１樓",
    "lon": 121.509849,
    "lat": 25.083959
  },
  {
    "city": "台北市",
    "district": "士林區",
    "name": "全家葫蘆店",
    "tel": "02-88114965",
    "address": "台北市士林區延平北路五段２８３之１號",
    "lon": 121.509472,
    "lat": 25.085598
  },
  {
    "city": "台北市",
    "district": "士林區",
    "name": "全家新天和店",
    "tel": "02-28723753",
    "address": "台北市士林區忠誠路二段１６８號１樓",
    "lon": 121.533115,
    "lat": 25.115701
  },
  {
    "city": "台北市",
    "district": "士林區",
    "name": "全家新蘭雅店",
    "tel": "02-28314977",
    "address": "台北市士林區忠誠路二段５２號壹樓及地下室部份",
    "lon": 121.53037,
    "lat": 25.11085
  },
  {
    "city": "台北市",
    "district": "士林區",
    "name": "全家誠德店",
    "tel": "02-28344780",
    "address": "台北市士林區忠誠路二段５號１樓",
    "lon": 121.530597,
    "lat": 25.108804
  },
  {
    "city": "台北市",
    "district": "士林區",
    "name": "全家永新店",
    "tel": "02-28113436",
    "address": "台北市士林區社子街２７號",
    "lon": 121.50795,
    "lat": 25.087679
  },
  {
    "city": "台北市",
    "district": "士林區",
    "name": "全家社中店",
    "tel": "02-28132673",
    "address": "台北市士林區社中街３８６號",
    "lon": 121.50342,
    "lat": 25.092291
  },
  {
    "city": "台北市",
    "district": "士林區",
    "name": "全家鑫社店",
    "tel": "02-28112859",
    "address": "台北市士林區社中街２８０號１樓及２樓",
    "lon": 121.506306,
    "lat": 25.092141
  },
  {
    "city": "台北市",
    "district": "士林區",
    "name": "全家社正店",
    "tel": "02-88115530",
    "address": "台北市士林區社正路２６號１樓",
    "lon": 121.509558,
    "lat": 25.088718
  },
  {
    "city": "台北市",
    "district": "士林區",
    "name": "全家致昇店",
    "tel": "02-28385392",
    "address": "台北市士林區雨聲街３６號１樓",
    "lon": 121.529165,
    "lat": 25.102178
  },
  {
    "city": "台北市",
    "district": "士林區",
    "name": "全家大港店",
    "tel": "02-28832065",
    "address": "台北市士林區前港街３９號",
    "lon": 121.521431,
    "lat": 25.084857
  },
  {
    "city": "台北市",
    "district": "士林區",
    "name": "全家福港店",
    "tel": "02-28804266",
    "address": "台北市士林區前港街１２６號",
    "lon": 121.517764,
    "lat": 25.085188
  },
  {
    "city": "台北市",
    "district": "士林區",
    "name": "全家天文店",
    "tel": "02-28319102",
    "address": "台北市士林區美崙街１１８號",
    "lon": 121.519482,
    "lat": 25.097076
  },
  {
    "city": "台北市",
    "district": "士林區",
    "name": "全家新葫東店",
    "tel": "02-28162923",
    "address": "台北市士林區重慶北路四段１８４號１樓",
    "lon": 121.511961,
    "lat": 25.084574
  },
  {
    "city": "台北市",
    "district": "士林區",
    "name": "全家新格致店",
    "tel": "02-28623855",
    "address": "台北市士林區格致路５３號１樓",
    "lon": 121.546313,
    "lat": 25.137716
  },
  {
    "city": "台北市",
    "district": "士林區",
    "name": "全家基河店",
    "tel": "02-28837080",
    "address": "台北市士林區基河路１２８號１樓",
    "lon": 121.523101,
    "lat": 25.088709
  },
  {
    "city": "台北市",
    "district": "士林區",
    "name": "全家通河店",
    "tel": "02-28858507",
    "address": "台北市士林區通河街１４５號",
    "lon": 121.520657,
    "lat": 25.081014
  },
  {
    "city": "台北市",
    "district": "士林區",
    "name": "全家新文大店",
    "tel": "02-28620079",
    "address": "台北市士林區華岡路５５號",
    "lon": 121.54032,
    "lat": 25.13753
  },
  {
    "city": "台北市",
    "district": "士林區",
    "name": "全家美崙店",
    "tel": "02-28346427",
    "address": "台北市士林區華榮街９７號",
    "lon": 121.523182,
    "lat": 25.097177
  },
  {
    "city": "台北市",
    "district": "士林區",
    "name": "全家百齡店",
    "tel": "02-28834606",
    "address": "台北市士林區福港街１５８－１號",
    "lon": 121.517616,
    "lat": 25.087199
  },
  {
    "city": "台北市",
    "district": "士林區",
    "name": "全家芝興店",
    "tel": "02-28341775",
    "address": "台北市士林區德行西路８９號１樓",
    "lon": 121.521511,
    "lat": 25.104545
  },
  {
    "city": "台北市",
    "district": "士林區",
    "name": "全家新芝蘭店",
    "tel": "02-28345602",
    "address": "台北市士林區德行東路２８２號１樓",
    "lon": 121.53576,
    "lat": 25.109939
  },
  {
    "city": "台北市",
    "district": "士林區",
    "name": "全家德忠店",
    "tel": "02-28318420",
    "address": "台北市士林區德行東路１０９巷７５號壹樓",
    "lon": 121.528485,
    "lat": 25.110002
  },
  {
    "city": "台北市",
    "district": "士林區",
    "name": "全家德行店",
    "tel": "02-28314191",
    "address": "台北市士林區德行東路１０９巷３號",
    "lon": 121.528311,
    "lat": 25.107915
  },
  {
    "city": "台北市",
    "district": "文山區",
    "name": "全家試院店",
    "tel": "02-22369520",
    "address": "台北市文山區木柵路一段９１號９３號一樓",
    "lon": 121.547328,
    "lat": 24.987128
  },
  {
    "city": "台北市",
    "district": "文山區",
    "name": "全家木興店",
    "tel": "02-22348419",
    "address": "台北市文山區木柵路２段５２號",
    "lon": 121.558935,
    "lat": 24.988629
  },
  {
    "city": "台北市",
    "district": "文山區",
    "name": "全家明興店",
    "tel": "02-86618412",
    "address": "台北市文山區木柵路２段１０９巷２５弄２號．２－１號",
    "lon": 121.562905,
    "lat": 24.990067
  },
  {
    "city": "台北市",
    "district": "文山區",
    "name": "全家木柵路店",
    "tel": "02-29362952",
    "address": "台北市文山區木柵路三段１４８號１５０號",
    "lon": 121.568577,
    "lat": 24.988837
  },
  {
    "city": "台北市",
    "district": "文山區",
    "name": "全家欣榮店",
    "tel": "02-22343591",
    "address": "台北市文山區木新路三段９３號",
    "lon": 121.562918,
    "lat": 24.982112
  },
  {
    "city": "台北市",
    "district": "文山區",
    "name": "全家鑫木新店",
    "tel": "02-29388551",
    "address": "台北市文山區木新路三段３４３號１樓",
    "lon": 121.555923,
    "lat": 24.980352
  },
  {
    "city": "台北市",
    "district": "文山區",
    "name": "全家仙岩店",
    "tel": "02-86631305",
    "address": "台北市文山區仙岩路２號",
    "lon": 121.547821,
    "lat": 24.998265
  },
  {
    "city": "台北市",
    "district": "文山區",
    "name": "全家師美店",
    "tel": "02-29322856",
    "address": "台北市文山區汀州路４段７７號",
    "lon": 121.537456,
    "lat": 25.008084
  },
  {
    "city": "台北市",
    "district": "文山區",
    "name": "全家順輝店",
    "tel": "02-29388216",
    "address": "台北市文山區光輝路７號",
    "lon": 121.554979,
    "lat": 24.986422
  },
  {
    "city": "台北市",
    "district": "文山區",
    "name": "全家興昌店",
    "tel": "02-29357810",
    "address": "台北市文山區辛亥路４段１０１巷１號",
    "lon": 121.558973,
    "lat": 25.006671
  },
  {
    "city": "台北市",
    "district": "文山區",
    "name": "全家名門店",
    "tel": "02-22301700",
    "address": "臺北市文山區和平東路四段９５、９７號１樓",
    "lon": 121.567859,
    "lat": 25.005164
  },
  {
    "city": "台北市",
    "district": "文山區",
    "name": "全家大順店",
    "tel": "02-22344799",
    "address": "台北市文山區忠順街一段１３１號",
    "lon": 121.560481,
    "lat": 24.984431
  },
  {
    "city": "台北市",
    "district": "文山區",
    "name": "全家鑫順店",
    "tel": "02-29370174",
    "address": "台北市文山區忠順街二段１６號、１８號",
    "lon": 121.562569,
    "lat": 24.984605
  },
  {
    "city": "台北市",
    "district": "文山區",
    "name": "全家保儀店",
    "tel": "02-29371061",
    "address": "台北市文山區保儀路７８號、８０號",
    "lon": 121.568439,
    "lat": 24.987358
  },
  {
    "city": "台北市",
    "district": "文山區",
    "name": "全家恆光店",
    "tel": "02-29375738",
    "address": "台北市文山區恆光街２１號１樓",
    "lon": 121.566853,
    "lat": 24.983153
  },
  {
    "city": "台北市",
    "district": "文山區",
    "name": "全家興政店",
    "tel": "02-86619335",
    "address": "台北市文山區指南路二段８３號壹＋貳樓",
    "lon": 121.575131,
    "lat": 24.987878
  },
  {
    "city": "台北市",
    "district": "文山區",
    "name": "全家政富店",
    "tel": "02-86613075",
    "address": "台北市文山區指南路二段１４５號１樓",
    "lon": 121.577119,
    "lat": 24.987505
  },
  {
    "city": "台北市",
    "district": "文山區",
    "name": "全家指南店",
    "tel": "02-29376465",
    "address": "台北市文山區指南路三段５１號１樓及２樓",
    "lon": 121.579682,
    "lat": 24.983825
  },
  {
    "city": "台北市",
    "district": "文山區",
    "name": "全家景中店",
    "tel": "02-29334768",
    "address": "台北市文山區景中街５號，七號一樓",
    "lon": 121.541735,
    "lat": 24.99306
  },
  {
    "city": "台北市",
    "district": "文山區",
    "name": "全家景文店",
    "tel": "02-29303305",
    "address": "台北市文山區景文街８３號",
    "lon": 121.54139,
    "lat": 24.99118
  },
  {
    "city": "台北市",
    "district": "文山區",
    "name": "全家景後店",
    "tel": "02-29342042",
    "address": "台北市文山區景後街９５號",
    "lon": 121.542984,
    "lat": 24.991918
  },
  {
    "city": "台北市",
    "district": "文山區",
    "name": "全家新文華店",
    "tel": "02-86633877",
    "address": "台北市文山區景華街３巷２號１樓及Ｂ１",
    "lon": 121.541577,
    "lat": 24.995174
  },
  {
    "city": "台北市",
    "district": "文山區",
    "name": "全家華德店",
    "tel": "02-29356335",
    "address": "台北市文山區景華街７５號",
    "lon": 121.545429,
    "lat": 24.99529
  },
  {
    "city": "台北市",
    "district": "文山區",
    "name": "全家景富店",
    "tel": "02-89313890",
    "address": "台北市文山區景福街２５號",
    "lon": 121.538273,
    "lat": 24.999095
  },
  {
    "city": "台北市",
    "district": "文山區",
    "name": "全家萬慶店",
    "tel": "02-86631281",
    "address": "台北市文山區景福街２３０巷１號一樓",
    "lon": 121.539152,
    "lat": 24.993664
  },
  {
    "city": "台北市",
    "district": "文山區",
    "name": "全家世景店",
    "tel": "02-86632846",
    "address": "台北市文山區景興路２８２巷２號壹樓",
    "lon": 121.542229,
    "lat": 24.989703
  },
  {
    "city": "台北市",
    "district": "文山區",
    "name": "全家興萬店",
    "tel": "02-82301508",
    "address": "台北市文山區萬安街２９號一樓",
    "lon": 121.570731,
    "lat": 25.000807
  },
  {
    "city": "台北市",
    "district": "文山區",
    "name": "全家新福興店",
    "tel": "02-29301491",
    "address": "臺北市文山區福興路６５號",
    "lon": 121.549836,
    "lat": 25.003657
  },
  {
    "city": "台北市",
    "district": "文山區",
    "name": "全家萬興店",
    "tel": "02-29304220",
    "address": "臺北市文山區興隆路一段５５巷２７弄１－４號",
    "lon": 121.541341,
    "lat": 25.004308
  },
  {
    "city": "台北市",
    "district": "文山區",
    "name": "全家景興店",
    "tel": "02-29304049",
    "address": "台北市文山區興隆路一段２４９號１樓",
    "lon": 121.54418,
    "lat": 24.999584
  },
  {
    "city": "台北市",
    "district": "文山區",
    "name": "全家興園店",
    "tel": "02-29334696",
    "address": "台北市文山區興業里興隆路二段２２０巷３３號",
    "lon": 121.552243,
    "lat": 25.000432
  },
  {
    "city": "台北市",
    "district": "文山區",
    "name": "全家興業店",
    "tel": "02-86635963",
    "address": "台北市文山區興隆路二段２７９號",
    "lon": 121.552696,
    "lat": 25.001671
  },
  {
    "city": "台北市",
    "district": "文山區",
    "name": "全家靜興店",
    "tel": "02-29356712",
    "address": "台北市文山區興隆路二段７５號壹樓",
    "lon": 121.54662,
    "lat": 24.999224
  },
  {
    "city": "台北市",
    "district": "文山區",
    "name": "全家中科大店",
    "tel": "02-29333950",
    "address": "台北市文山區興隆路三段３６巷９弄１０號",
    "lon": 121.555598,
    "lat": 24.999848
  },
  {
    "city": "台北市",
    "district": "文山區",
    "name": "全家再興店",
    "tel": "02-22302780",
    "address": "台北市文山區興隆路３段２０７巷１１弄２號",
    "lon": 121.561509,
    "lat": 24.99499
  },
  {
    "city": "台北市",
    "district": "文山區",
    "name": "全家萬芳店",
    "tel": "02-29348650",
    "address": "台北市文山區興隆路三段１１２巷２弄１號１樓",
    "lon": 121.557059,
    "lat": 24.998848
  },
  {
    "city": "台北市",
    "district": "文山區",
    "name": "全家文山公宅店",
    "tel": "02-86619874",
    "address": "台北市文山區興隆路四段１０５巷４２號木柵大樓１樓",
    "lon": 121.561979,
    "lat": 24.987711
  },
  {
    "city": "台北市",
    "district": "文山區",
    "name": "全家興崙店",
    "tel": "02-29397480",
    "address": "台北市文山區興隆路四段５０之１號",
    "lon": 121.560769,
    "lat": 24.986565
  },
  {
    "city": "台北市",
    "district": "文山區",
    "name": "全家萬和店",
    "tel": "02-86636168",
    "address": "台北市文山區羅斯福路五段２１８巷３８弄２號１樓",
    "lon": 121.536862,
    "lat": 25.002202
  },
  {
    "city": "台北市",
    "district": "文山區",
    "name": "全家萬福店",
    "tel": "02-29315696",
    "address": "台北市文山區羅斯福路五段２６９巷１１號",
    "lon": 121.540125,
    "lat": 25.001349
  },
  {
    "city": "台北市",
    "district": "文山區",
    "name": "全家羅和店",
    "tel": "02-29352655",
    "address": "台北市文山區羅斯福路六段１４６－１號",
    "lon": 121.540953,
    "lat": 24.995701
  },
  {
    "city": "台北市",
    "district": "文山區",
    "name": "全家景和店",
    "tel": "02-89319847",
    "address": "台北市文山區羅斯福路六段２７４號",
    "lon": 121.539992,
    "lat": 24.991435
  }
]